City_ID,City,Lat,Lng,Max Temp in Celsius,Humidity,Cloudiness,Wind Speed,Country,Date
0,anadyr,64.75,177.4833,-13.71999999999997,92,40%,0.0,RU,2023-04-22 12:24:48
1,port-aux-francais,-49.35,70.2167,7.710000000000036,93,100%,16.88,TF,2023-04-22 12:25:22
2,ushuaia,-54.8,-68.3,10.810000000000002,50,75%,8.75,AR,2023-04-22 12:21:25
3,invercargill,-46.4,168.35,11.680000000000007,82,93%,0.89,NZ,2023-04-22 12:25:22
4,angaur state,6.906,134.13,28.090000000000032,75,95%,4.21,PW,2023-04-22 12:33:12
5,adrar,20.5022,-10.0711,30.370000000000005,14,59%,5.47,MR,2023-04-22 12:33:13
6,aver-o-mar,41.4078,-8.7812,18.510000000000048,77,20%,5.66,PT,2023-04-22 12:33:13
7,aasiaat,68.7098,-52.8699,-0.3100000000000023,86,100%,1.24,GL,2023-04-22 12:25:46
8,silver city,32.7701,-108.2803,20.980000000000018,22,0%,4.02,US,2023-04-22 12:32:02
9,port elizabeth,-33.918,25.5701,17.160000000000025,66,0%,2.57,ZA,2023-04-22 12:25:30
10,andergrove,-21.0833,149.1833,23.689999999999998,79,100%,10.7,AU,2023-04-22 12:33:14
11,stettler,52.3168,-112.7186,4.860000000000014,43,70%,4.67,CA,2023-04-22 12:33:15
12,crane,31.3974,-102.3501,24.200000000000045,14,0%,3.3,US,2023-04-22 12:25:52
13,sachin,21.0833,72.8833,27.939999999999998,42,0%,3.6,IN,2023-04-22 12:33:15
14,wailua homesteads,22.0669,-159.378,23.25,94,0%,3.09,US,2023-04-22 12:25:48
15,llazice,42.5553,20.7633,13.990000000000009,70,71%,2.71,XK,2023-04-22 12:33:16
16,waitangi,-43.9535,-176.5597,12.120000000000005,96,81%,0.89,NZ,2023-04-22 12:23:12
17,puerto ayora,-0.7393,-90.3518,29.980000000000018,85,63%,6.26,EC,2023-04-22 12:25:24
18,fort-shevchenko,44.5086,50.263,13.620000000000005,65,2%,3.61,KZ,2023-04-22 12:33:17
19,lebu,-37.6167,-73.65,15.0,75,2%,7.19,CL,2023-04-22 12:23:56
20,slave lake,55.2834,-114.769,4.990000000000009,48,0%,6.69,CA,2023-04-22 12:33:18
21,afaahiti,-17.75,-149.2833,24.930000000000007,84,100%,7.26,PF,2023-04-22 12:25:42
22,grytviken,-54.2811,-36.5092,1.580000000000041,79,54%,9.69,GS,2023-04-22 12:25:23
23,adamstown,-25.066,-130.1015,25.120000000000005,86,100%,8.99,PN,2023-04-22 12:25:29
24,isafjordur,66.0755,-23.124,2.480000000000018,58,12%,2.78,IS,2023-04-22 12:25:34
25,olonkinbyen,70.9221,-8.7187,-3.079999999999984,64,49%,5.8,SJ,2023-04-22 12:25:23
26,mili,6.0815,171.735,27.55000000000001,81,39%,7.28,MH,2023-04-22 12:33:19
27,columbia falls,48.3725,-114.1815,6.680000000000007,70,75%,4.12,US,2023-04-22 12:33:16
28,bonnyville,54.2668,-110.735,3.890000000000043,40,29%,4.14,CA,2023-04-22 12:30:21
29,petropavlovsk-kamchatsky,53.0452,158.6483,0.3300000000000409,100,75%,5.0,RU,2023-04-22 12:24:46
30,mirny,62.5353,113.9611,-16.279999999999973,96,7%,0.75,RU,2023-04-22 12:26:22
31,cabedelo,-6.9811,-34.8339,31.370000000000005,67,24%,6.64,BR,2023-04-22 12:30:47
32,iqaluit,63.7506,-68.5145,-0.14999999999997726,93,100%,8.05,CA,2023-04-22 12:25:49
33,betio village,1.358,172.9211,28.02000000000004,79,90%,5.42,KI,2023-04-22 12:33:22
34,west island,-12.1568,96.8225,27.99000000000001,83,75%,5.66,CC,2023-04-22 12:25:38
35,atbasar,51.8,68.3333,9.810000000000002,62,100%,3.92,KZ,2023-04-22 12:33:23
36,yigo village,13.5361,144.8886,26.620000000000005,87,100%,5.66,GU,2023-04-22 12:33:23
37,rongelap,11.1635,166.8941,27.07000000000005,79,99%,8.74,MH,2023-04-22 12:26:22
38,vikhorevka,56.1201,101.1636,-2.2299999999999613,98,84%,1.49,RU,2023-04-22 12:33:24
39,coquimbo,-29.9533,-71.3436,15.850000000000023,82,100%,4.63,CL,2023-04-22 12:24:02
40,tangalle,6.024,80.7911,25.30000000000001,88,68%,2.43,LK,2023-04-22 12:33:24
41,cafayate,-26.073,-65.9761,17.78000000000003,67,99%,3.87,AR,2023-04-22 12:33:25
42,kembe,4.6228,21.8865,23.680000000000007,82,100%,1.42,CF,2023-04-22 12:33:25
43,kodiak,57.79,-152.4072,7.730000000000018,36,0%,4.63,US,2023-04-22 12:23:58
44,east ballina,-28.8667,153.5833,15.439999999999998,61,96%,7.2,AU,2023-04-22 12:30:45
45,bilibino,68.0546,166.4372,-10.509999999999991,73,42%,1.95,RU,2023-04-22 12:22:38
46,albany,42.6001,-73.9662,18.100000000000023,63,100%,1.79,US,2023-04-22 12:22:03
47,talnakh,69.4865,88.3972,1.2300000000000182,94,100%,6.07,RU,2023-04-22 12:25:42
48,pitimbu,-7.4706,-34.8086,31.33000000000004,70,27%,5.92,BR,2023-04-22 12:33:27
49,avarua,-21.2078,-159.775,23.03000000000003,83,20%,2.06,CK,2023-04-22 12:31:14
50,udachny,66.4167,112.4,-8.92999999999995,97,100%,2.25,RU,2023-04-22 12:25:33
51,codrington,-38.2667,141.9667,14.240000000000009,87,76%,1.16,AU,2023-04-22 12:29:28
52,guimar,28.3039,-16.4325,19.5,82,81%,0.61,ES,2023-04-22 12:33:28
53,bridgewater,44.3835,-64.5155,13.390000000000043,41,87%,3.09,CA,2023-04-22 12:33:29
54,remire-montjoly,4.9167,-52.2667,24.02000000000004,94,75%,2.06,GF,2023-04-22 12:25:37
55,les avirons,-21.2418,55.3394,24.05000000000001,78,75%,2.06,RE,2023-04-22 12:33:30
56,lihue,21.9789,-159.3672,23.58000000000004,92,0%,3.09,US,2023-04-22 12:25:44
57,pimentel,-6.8367,-79.9342,31.160000000000025,55,20%,2.06,PE,2023-04-22 12:29:53
58,klyuchi,52.2667,79.1667,1.7200000000000273,77,31%,3.46,RU,2023-04-22 12:25:42
59,cockburn town,21.4612,-71.1419,25.04000000000002,69,0%,3.63,TC,2023-04-22 12:33:31
60,ancud,-41.8697,-73.8203,13.689999999999998,66,0%,2.21,CL,2023-04-22 12:31:51
61,gaalkacyo,6.7697,47.4308,28.54000000000002,62,98%,9.75,SO,2023-04-22 12:33:31
62,aksu,41.1231,80.2644,11.150000000000034,46,13%,2.9,CN,2023-04-22 12:33:32
63,bredasdorp,-34.5322,20.0403,14.439999999999998,72,100%,2.88,ZA,2023-04-22 12:32:32
64,puerto natales,-51.7236,-72.4875,15.25,44,75%,10.29,CL,2023-04-22 12:25:37
65,hermanus,-34.4187,19.2345,15.350000000000023,65,100%,5.77,ZA,2023-04-22 12:25:36
66,keflavik,64.0049,-22.5624,4.9500000000000455,100,100%,3.09,IS,2023-04-22 12:25:01
67,hawaiian paradise park,19.5933,-154.9731,23.910000000000025,94,40%,2.57,US,2023-04-22 12:25:53
68,dudinka,69.4058,86.1778,1.4600000000000364,98,100%,5.48,RU,2023-04-22 12:33:05
69,douentza,14.9951,-2.9517,36.93000000000001,8,61%,5.83,ML,2023-04-22 12:33:34
70,caleta de carquin,-11.0925,-77.6267,26.939999999999998,68,26%,5.43,PE,2023-04-22 12:26:44
71,korla,41.7597,86.1469,13.890000000000043,33,95%,4.8,CN,2023-04-22 12:33:34
72,koulamoutou,-1.1303,12.4736,22.99000000000001,97,100%,0.68,GA,2023-04-22 12:33:34
73,amble,55.3333,-1.5833,9.080000000000041,91,100%,3.09,GB,2023-04-22 12:33:35
74,chilliwack,49.1747,-121.9443,10.29000000000002,79,100%,1.34,CA,2023-04-22 12:33:35
75,ribeira grande,38.5167,-28.7,18.220000000000027,88,75%,7.2,PT,2023-04-22 12:25:26
76,vorgashor,67.5833,63.95,-2.4399999999999977,95,97%,6.11,RU,2023-04-22 12:25:31
77,saldanha,-33.0117,17.9442,14.03000000000003,83,100%,8.2,ZA,2023-04-22 12:29:33
78,thompson,55.7435,-97.8558,0.09000000000003183,51,20%,3.6,CA,2023-04-22 12:25:51
79,margaret river,-33.95,115.0667,15.990000000000009,55,0%,2.67,AU,2023-04-22 12:25:38
80,blackmans bay,-43.0167,147.3167,13.07000000000005,64,62%,5.15,AU,2023-04-22 12:25:28
81,bethel,41.3712,-73.414,18.900000000000034,76,100%,4.63,US,2023-04-22 12:25:29
82,punta arenas,-53.15,-70.9167,11.060000000000002,54,0%,5.14,CL,2023-04-22 12:22:12
83,san pedro pochutla,15.7333,-96.4667,32.06,49,73%,4.01,MX,2023-04-22 12:33:37
84,georgetown,5.4112,100.3354,27.960000000000036,88,20%,2.06,MY,2023-04-22 12:32:37
85,kavaratti,10.5669,72.642,28.920000000000016,71,86%,5.22,IN,2023-04-22 12:26:37
86,papatowai,-46.5619,169.4708,13.390000000000043,71,84%,3.94,NZ,2023-04-22 12:25:34
87,prieska,-29.6641,22.7474,18.689999999999998,9,82%,3.07,ZA,2023-04-22 12:33:38
88,san patricio,28.017,-97.5169,27.920000000000016,55,0%,6.47,US,2023-04-22 12:25:48
89,kingston,17.997,-76.7936,31.25,63,20%,4.63,JM,2023-04-22 12:24:35
90,thinadhoo,0.5333,72.9333,29.189999999999998,70,37%,1.54,MV,2023-04-22 12:33:38
91,bonthe,7.5264,-12.505,29.720000000000027,61,74%,6.38,SL,2023-04-22 12:29:22
92,cide,41.8921,33.0044,9.830000000000041,89,4%,1.29,TR,2023-04-22 12:33:39
93,karlskrona,56.1616,15.5866,11.25,64,5%,2.62,SE,2023-04-22 12:33:39
94,atafu village,-8.5421,-172.5159,28.53000000000003,76,12%,3.74,TK,2023-04-22 12:25:00
95,klaksvik,62.2266,-6.589,5.510000000000048,75,100%,14.32,FO,2023-04-22 12:23:45
96,zouerate,22.7187,-12.4521,27.33000000000004,18,67%,5.49,MR,2023-04-22 12:33:40
97,lazaro cardenas,17.9583,-102.2,28.930000000000007,58,79%,3.57,MX,2023-04-22 12:28:51
98,sumbe,-11.2061,13.8437,26.27000000000004,83,48%,3.16,AO,2023-04-22 12:30:43
99,chonchi,-42.6128,-73.8092,17.29000000000002,58,12%,0.12,CL,2023-04-22 12:33:40
100,muravlenko,63.7898,74.523,0.5800000000000409,99,100%,2.7,RU,2023-04-22 12:33:41
101,eenhana,-17.4667,16.3333,22.760000000000048,63,98%,2.8,NA,2023-04-22 12:33:41
102,gizo,-8.103,156.8419,27.870000000000005,75,20%,2.46,SB,2023-04-22 12:33:41
103,butembo,0.15,29.2833,16.02000000000004,97,100%,1.2,CD,2023-04-22 12:33:41
104,sitka,57.0531,-135.33,7.939999999999998,61,100%,6.17,US,2023-04-22 12:33:11
105,molochnoye,59.2917,39.6787,8.670000000000016,64,77%,3.76,RU,2023-04-22 12:33:42
106,yellowknife,62.456,-114.3525,5.310000000000002,52,75%,6.17,CA,2023-04-22 12:32:41
107,ambodifotatra,-16.9833,49.85,27.5,78,22%,3.13,MG,2023-04-22 12:29:46
108,untergriesbach,48.5743,13.6673,16.55000000000001,61,98%,0.45,DE,2023-04-22 12:33:43
109,mejit,10.2753,170.8646,27.129999999999995,77,23%,8.86,MH,2023-04-22 12:26:10
110,ribeira brava,32.65,-17.0667,20.0,77,86%,0.97,PT,2023-04-22 12:33:43
111,essaouira,31.5125,-9.77,22.720000000000027,56,100%,7.72,MA,2023-04-22 12:33:43
112,labrador city,52.9463,-66.9114,4.9500000000000455,60,100%,4.63,CA,2023-04-22 12:33:44
113,la'ie,21.6477,-157.9253,24.5,83,18%,6.39,US,2023-04-22 12:25:39
114,altamont,42.2068,-121.7372,11.610000000000014,69,40%,0.89,US,2023-04-22 12:33:44
115,khovd,48.0056,91.6419,2.2700000000000387,26,100%,0.93,MN,2023-04-22 12:33:44
116,flin flon,54.7682,-101.865,4.910000000000025,33,0%,3.09,CA,2023-04-22 12:24:08
117,fort morgan,40.2503,-103.8,2.3600000000000136,55,100%,5.66,US,2023-04-22 12:31:50
118,pachino,36.7186,15.0907,15.950000000000045,70,2%,4.34,IT,2023-04-22 12:29:53
119,kapuskasing,49.4169,-82.4331,6.050000000000011,87,100%,5.14,CA,2023-04-22 12:33:46
120,ad dabbah,18.05,30.95,35.27000000000004,9,0%,2.38,SD,2023-04-22 12:33:46
121,tiksi,71.6872,128.8694,-16.810000000000002,98,26%,2.54,RU,2023-04-22 12:25:24
122,edinburgh of the seven seas,-37.0676,-12.3116,15.560000000000002,63,5%,11.89,SH,2023-04-22 12:32:33
123,swift current,50.2834,-107.8014,0.4500000000000455,69,0%,2.57,CA,2023-04-22 12:29:52
124,dhidhdhoo,6.8833,73.1,29.52000000000004,73,100%,4.08,MV,2023-04-22 12:21:57
125,tongren,27.7172,109.1853,8.460000000000036,95,100%,3.01,CN,2023-04-22 12:33:47
126,olyokminsk,60.3736,120.4264,-6.569999999999993,92,94%,0.28,RU,2023-04-22 12:29:26
127,fisterra,42.9049,-9.2629,17.230000000000018,85,79%,11.75,ES,2023-04-22 12:29:52
128,berkane,34.9084,-2.3461,23.82000000000005,55,66%,2.78,MA,2023-04-22 12:33:48
129,lock haven,41.137,-77.4469,23.32000000000005,73,100%,4.92,US,2023-04-22 12:33:48
130,lufilufi,-13.8745,-171.5986,24.879999999999995,79,73%,6.28,WS,2023-04-22 12:33:48
131,tamanrasset,22.785,5.5228,29.950000000000045,7,0%,5.66,DZ,2023-04-22 12:26:42
132,roma,43.2128,-75.4557,22.05000000000001,62,0%,7.72,US,2023-04-22 12:30:54
133,darwin,-12.4611,130.8418,26.610000000000014,71,31%,3.58,AU,2023-04-22 12:30:55
134,santarem,-2.4431,-54.7083,29.07000000000005,84,75%,2.06,BR,2023-04-22 12:33:35
135,kisangani,0.5167,25.2,21.32000000000005,92,99%,1.2,CD,2023-04-22 12:33:49
136,tingo maria,-9.2895,-76.0088,28.170000000000016,65,20%,2.06,PE,2023-04-22 12:33:49
137,broken hill,-31.95,141.4333,15.07000000000005,56,0%,4.1,AU,2023-04-22 12:27:47
138,alofi,-19.0595,-169.9187,15.939999999999998,100,1%,1.03,NU,2023-04-22 12:33:50
139,beau vallon,-20.4189,57.6953,25.129999999999995,94,75%,2.06,MU,2023-04-22 12:26:03
140,ilulissat,69.2167,-51.1,0.010000000000047748,74,75%,1.54,GL,2023-04-22 12:25:51
141,charlottetown,46.2352,-63.1267,8.760000000000048,62,75%,6.17,CA,2023-04-22 12:32:03
142,mahina,-17.5065,-149.489,25.870000000000005,89,75%,2.57,PF,2023-04-22 12:23:57
143,kununurra,-15.7667,128.7333,26.99000000000001,41,0%,4.12,AU,2023-04-22 12:31:53
144,huruta,8.15,39.35,17.650000000000034,73,94%,2.41,ET,2023-04-22 12:33:51
145,krasnoturansk,54.3186,91.5639,0.5200000000000387,57,99%,1.3,RU,2023-04-22 12:33:51
146,faya-largeau,17.9257,19.1043,35.34000000000003,8,3%,2.97,TD,2023-04-22 12:33:51
147,nadym,65.5333,72.5167,0.1400000000000432,98,100%,2.4,RU,2023-04-22 12:29:48
148,praia da vitoria,38.7333,-27.0667,20.140000000000043,77,75%,10.4,PT,2023-04-22 12:24:19
149,cono norte,-16.3166,-71.5829,16.03000000000003,55,0%,3.6,PE,2023-04-22 12:33:52
150,menaka,15.9182,2.4022,37.09000000000003,7,28%,6.2,ML,2023-04-22 12:33:52
151,brisas de zicatela,15.8369,-97.0419,30.29000000000002,70,40%,0.0,MX,2023-04-22 12:33:53
152,barra de santo antonio,-9.4047,-35.5072,30.600000000000023,67,99%,4.65,BR,2023-04-22 12:30:15
153,callao,-12.0667,-77.15,26.160000000000025,65,0%,8.23,PE,2023-04-22 12:29:18
154,kourou,5.1552,-52.6478,24.03000000000003,90,100%,2.34,GF,2023-04-22 12:32:37
155,jining,35.405,116.5814,7.1200000000000045,96,100%,4.6,CN,2023-04-22 12:33:53
156,papao,-17.75,-149.55,25.82000000000005,87,100%,5.36,PF,2023-04-22 12:33:54
157,longyearbyen,78.2186,15.6401,-13.089999999999975,66,0%,4.12,SJ,2023-04-22 12:25:47
158,barreirinhas,-2.7469,-42.8264,31.80000000000001,54,81%,3.11,BR,2023-04-22 12:33:54
159,antofagasta,-23.65,-70.4,21.600000000000023,67,97%,2.71,CL,2023-04-22 12:31:46
160,kavieng,-2.5744,150.7967,27.58000000000004,80,100%,5.16,PG,2023-04-22 12:33:55
161,gemena,3.25,19.7667,21.640000000000043,94,70%,0.87,CD,2023-04-22 12:33:55
162,tongliao,43.6125,122.2653,3.230000000000018,16,2%,5.32,CN,2023-04-22 12:33:55
163,nova olimpia,-14.7972,-57.2881,30.02000000000004,63,14%,1.58,BR,2023-04-22 12:33:49
164,guerrero negro,27.9769,-114.0611,22.660000000000025,42,0%,5.59,MX,2023-04-22 12:33:56
165,umea,63.8284,20.2597,-0.03999999999996362,86,100%,4.12,SE,2023-04-22 12:33:56
166,kamaishi,39.2667,141.8833,4.830000000000041,70,14%,4.48,JP,2023-04-22 12:33:56
167,nishinoomote,30.7333,131.0,18.57000000000005,66,65%,8.79,JP,2023-04-22 12:33:56
168,nuriootpa,-34.4833,139.0,14.75,83,0%,3.38,AU,2023-04-22 12:33:57
169,saudarkrokur,65.7461,-19.6394,2.2800000000000296,62,7%,1.91,IS,2023-04-22 12:33:57
170,dauphin,51.1494,-100.0502,1.080000000000041,47,0%,1.54,CA,2023-04-22 12:32:46
171,mizdah,31.4451,12.9801,19.730000000000018,40,0%,7.81,LY,2023-04-22 12:33:58
172,rasinari,45.7,24.0667,13.0,41,0%,2.57,RO,2023-04-22 12:33:58
173,weinan,34.5036,109.5089,3.240000000000009,97,100%,0.94,CN,2023-04-22 12:33:58
174,berezovyy,51.6667,135.7,-0.6099999999999568,94,100%,1.51,RU,2023-04-22 12:33:58
175,kalianget,-7.05,113.9333,27.650000000000034,75,33%,5.08,ID,2023-04-22 12:33:59
176,stanley,54.868,-1.6985,11.550000000000011,94,100%,2.06,GB,2023-04-22 12:25:32
177,ust-nera,64.5667,143.2,-11.649999999999977,99,95%,1.94,RU,2023-04-22 12:24:52
178,mkokotoni,-5.8767,39.2547,25.30000000000001,90,100%,1.6,TZ,2023-04-22 12:33:59
179,nizhnesortymskiy,62.4397,71.7603,0.12999999999999545,99,100%,1.0,RU,2023-04-22 12:34:00
180,hasaki,35.7333,140.8333,9.560000000000002,49,75%,5.61,JP,2023-04-22 12:34:00
181,lhokseumawe,5.1801,97.1507,26.57000000000005,82,98%,1.6,ID,2023-04-22 12:34:00
182,borgarnes,64.5383,-21.9206,7.1200000000000045,46,9%,0.83,IS,2023-04-22 12:34:00
183,tarawa,1.419,172.984,28.05000000000001,83,20%,4.63,KI,2023-04-22 12:34:01
184,wotho,10.1657,166.0102,27.439999999999998,78,95%,8.59,MH,2023-04-22 12:34:01
185,juan griego,11.0817,-63.9655,24.07000000000005,94,99%,3.09,VE,2023-04-22 12:34:01
186,sinjai,-5.1241,120.253,24.210000000000036,91,92%,1.64,ID,2023-04-22 12:34:01
187,nova sintra,14.8667,-24.7167,20.04000000000002,77,7%,9.18,CV,2023-04-22 12:26:03
188,college,64.8569,-147.8028,-4.029999999999973,60,75%,10.29,US,2023-04-22 12:24:06
189,hadibu,12.65,54.0333,28.590000000000032,72,8%,2.82,YE,2023-04-22 12:25:46
190,bomdila,27.25,92.4,7.82000000000005,83,6%,2.72,IN,2023-04-22 12:34:03
191,tomatlan,19.9333,-105.25,31.03000000000003,41,93%,3.07,MX,2023-04-22 12:25:52
192,lorengau,-2.0226,147.2712,27.58000000000004,79,98%,2.33,PG,2023-04-22 12:29:33
193,buka,40.8108,69.1986,18.110000000000014,28,20%,2.85,UZ,2023-04-22 12:34:04
194,villa de soto,-30.8552,-64.9995,22.439999999999998,48,95%,1.37,AR,2023-04-22 12:34:04
195,tulun,54.5611,100.5792,-0.7999999999999545,89,75%,2.31,RU,2023-04-22 12:34:05
196,vila velha,-20.3297,-40.2925,24.970000000000027,81,75%,4.12,BR,2023-04-22 12:26:36
197,kirkwood,38.5834,-90.4068,8.760000000000048,50,100%,8.23,US,2023-04-22 12:31:08
198,cehegin,38.0924,-1.7985,19.80000000000001,46,90%,1.14,ES,2023-04-22 12:34:06
199,kayes,14.0,-11.0,38.14000000000004,9,49%,3.82,ML,2023-04-22 12:34:06
200,bamyan,34.75,67.25,4.8700000000000045,29,0%,1.29,AF,2023-04-22 12:34:07
201,constantia,44.1833,28.65,10.390000000000043,76,34%,3.24,RO,2023-04-22 12:22:02
202,pandan,14.0453,124.1694,26.30000000000001,85,93%,2.74,PH,2023-04-22 12:34:07
203,whitehorse,60.7161,-135.0538,2.430000000000007,64,20%,4.12,CA,2023-04-22 12:25:26
204,lewiston orchards,46.3804,-116.9754,11.04000000000002,55,0%,3.6,US,2023-04-22 12:34:08
205,tazovsky,67.4667,78.7,-0.45999999999997954,98,100%,2.83,RU,2023-04-22 12:25:12
206,bel ombre,-4.6167,55.4167,27.910000000000025,83,20%,1.03,SC,2023-04-22 12:25:23
207,dedovichi,57.5517,29.9502,11.400000000000034,67,96%,2.22,RU,2023-04-22 12:34:09
208,fort bragg,35.139,-79.006,22.680000000000007,82,100%,4.63,US,2023-04-22 12:30:04
209,laguna,38.421,-121.4238,23.430000000000007,48,0%,5.14,US,2023-04-22 12:25:54
210,makurazaki,31.2667,130.3167,14.379999999999995,64,46%,4.47,JP,2023-04-22 12:34:10
211,khandyga,62.6667,135.6,-8.95999999999998,99,84%,1.38,RU,2023-04-22 12:25:36
212,mazagao,-0.115,-51.2894,31.03000000000003,66,100%,2.52,BR,2023-04-22 12:34:11
213,lubuklinggau,-3.3,102.8667,23.060000000000002,98,99%,0.9,ID,2023-04-22 12:34:11
214,port mathurin,-19.6833,63.4167,26.27000000000004,79,36%,8.57,MU,2023-04-22 12:25:53
215,new norfolk,-42.7826,147.0587,13.720000000000027,65,69%,0.45,AU,2023-04-22 12:22:35
216,sake,-1.5736,29.045,18.720000000000027,94,100%,0.57,CD,2023-04-22 12:34:12
217,nantucket,41.2835,-70.0995,11.160000000000025,82,100%,7.2,US,2023-04-22 12:29:19
218,la passe,45.5549,-0.8967,17.129999999999995,81,51%,3.88,FR,2023-04-22 12:34:13
219,jamestown,42.097,-79.2353,10.800000000000011,93,100%,8.23,US,2023-04-22 12:25:38
220,taghazout,30.5426,-9.7112,23.430000000000007,55,47%,7.4,MA,2023-04-22 12:34:14
221,mumford,5.2618,-0.759,28.27000000000004,80,44%,7.03,GH,2023-04-22 12:34:14
222,east london,-33.0153,27.9116,18.52000000000004,55,0%,3.09,ZA,2023-04-22 12:24:19
223,puerto deseado,-47.7503,-65.8938,15.400000000000034,45,45%,12.72,AR,2023-04-22 12:34:14
224,tallahassee,30.4383,-84.2807,27.400000000000034,58,75%,3.6,US,2023-04-22 12:32:17
225,tura,25.5198,90.2201,22.30000000000001,68,43%,2.96,IN,2023-04-22 12:25:38
226,lobujya,27.95,86.8167,-15.67999999999995,64,76%,1.47,NP,2023-04-22 12:34:15
227,puerto baquerizo moreno,-0.9,-89.6,27.55000000000001,83,40%,4.12,EC,2023-04-22 12:25:28
228,geraldton,-28.7667,114.6,16.230000000000018,51,0%,2.06,AU,2023-04-22 12:25:31
229,muisne,0.6,-80.0333,28.75,69,82%,2.68,EC,2023-04-22 12:34:17
230,port lincoln,-34.7333,135.8667,16.49000000000001,87,0%,4.07,AU,2023-04-22 12:25:31
231,arraial do cabo,-22.9661,-42.0278,26.980000000000018,69,40%,5.66,BR,2023-04-22 12:24:46
232,fada,9.5667,8.3,27.660000000000025,52,100%,3.79,NG,2023-04-22 12:34:18
233,isangel,-19.55,169.2667,25.55000000000001,82,30%,3.32,VU,2023-04-22 12:34:18
234,enewetak,11.3474,162.3373,26.140000000000043,87,100%,7.78,MH,2023-04-22 12:21:13
235,shagonar,51.5333,92.8,-0.37999999999999545,59,65%,0.36,RU,2023-04-22 12:34:19
236,al jawf,29.5,38.75,23.710000000000036,33,96%,5.02,SA,2023-04-22 12:34:19
237,shache,38.4167,77.2406,14.28000000000003,17,2%,1.06,CN,2023-04-22 12:34:19
238,weno,7.4515,151.8468,27.970000000000027,89,40%,0.0,FM,2023-04-22 12:25:58
239,harper,4.375,-7.7169,29.450000000000045,71,29%,5.25,LR,2023-04-22 12:30:00
240,happy valley-goose bay,53.3168,-60.3315,4.170000000000016,81,75%,4.63,CA,2023-04-22 12:26:29
241,turpan,42.9333,89.1667,19.120000000000005,25,100%,6.31,CN,2023-04-22 12:30:54
242,tobelo,1.7284,128.0095,26.129999999999995,83,51%,1.33,ID,2023-04-22 12:34:21
243,yarmouth,41.7057,-70.2286,14.420000000000016,77,100%,6.17,US,2023-04-22 12:34:21
244,sinabang,2.4803,96.3801,27.200000000000045,81,99%,1.37,ID,2023-04-22 12:27:37
245,port alfred,-33.5906,26.891,15.100000000000023,68,100%,0.89,ZA,2023-04-22 12:25:26
246,tromso,69.6496,18.957,-2.9899999999999523,93,75%,2.06,NO,2023-04-22 12:34:22
247,yaren,-0.5472,166.916,28.360000000000014,73,71%,5.52,NR,2023-04-22 12:30:34
248,crieff,56.3727,-3.8389,11.53000000000003,65,75%,3.56,GB,2023-04-22 12:34:23
249,polyarnyy,69.1989,33.4478,-4.989999999999952,66,78%,6.46,RU,2023-04-22 12:26:36
250,askoy,60.4092,5.226,16.08000000000004,41,0%,4.12,NO,2023-04-22 12:34:23
251,ponchatoula,30.4388,-90.4415,26.110000000000014,34,0%,3.09,US,2023-04-22 12:30:43
252,vilyuchinsk,52.9306,158.4028,1.150000000000034,96,100%,2.21,RU,2023-04-22 12:26:44
253,stow,41.1595,-81.4404,12.340000000000032,78,100%,4.12,US,2023-04-22 12:34:24
254,mount pearl,47.5166,-52.7813,3.8000000000000114,96,100%,10.8,CA,2023-04-22 12:30:21
255,tolanaro,-25.0319,46.9987,24.04000000000002,88,40%,1.03,MG,2023-04-22 12:25:48
256,aban,56.67,96.06,-1.4799999999999613,90,68%,0.69,RU,2023-04-22 12:34:25
257,pionerskiy,54.9508,20.2275,11.910000000000025,76,3%,1.59,RU,2023-04-22 12:34:26
258,kapa'a,22.0752,-159.319,23.99000000000001,94,0%,3.09,US,2023-04-22 12:22:44
259,gadzhiyevo,69.2551,33.3362,-5.769999999999982,68,75%,6.4,RU,2023-04-22 12:25:41
260,zhoucun,36.8167,117.8167,8.260000000000048,80,100%,0.6,CN,2023-04-22 12:34:26
261,druskininkai,54.0167,23.9667,12.770000000000039,63,99%,1.6,LT,2023-04-22 12:34:27
262,chapar,26.2667,90.4667,25.710000000000036,54,15%,1.72,IN,2023-04-22 12:34:27
263,kabo,7.6994,18.629,28.670000000000016,57,100%,4.2,CF,2023-04-22 12:34:28
264,castillos,-34.1667,-53.8333,23.900000000000034,42,77%,0.29,UY,2023-04-22 12:29:52
265,susuman,62.7833,148.1667,-14.099999999999966,98,85%,1.39,RU,2023-04-22 12:33:47
266,pago pago,-14.2781,-170.7025,24.55000000000001,100,100%,4.12,AS,2023-04-22 12:34:29
267,sibut,5.718,19.0739,26.160000000000025,71,78%,4.14,CF,2023-04-22 12:34:29
268,labuan,5.2767,115.2417,26.200000000000045,94,20%,0.0,MY,2023-04-22 12:34:30
269,ilomantsi,62.6716,30.9328,2.430000000000007,98,100%,1.94,FI,2023-04-22 12:34:30
270,timbuktu,16.7735,-3.0074,34.82000000000005,5,61%,7.37,ML,2023-04-22 12:34:31
271,kibaya,-5.3,36.5667,15.410000000000025,99,100%,0.97,TZ,2023-04-22 12:34:32
272,ebon,4.582,168.6964,28.340000000000032,77,73%,6.12,MH,2023-04-22 12:25:39
273,saint-pierre,-21.3393,55.4781,25.82000000000005,78,75%,2.06,RE,2023-04-22 12:31:02
274,kimbe,-5.5502,150.1429,24.060000000000002,92,78%,1.74,PG,2023-04-22 12:34:33
275,celestun,20.8667,-90.4,29.53000000000003,61,10%,3.73,MX,2023-04-22 12:34:34
276,yanchep,-31.55,115.6833,18.120000000000005,38,13%,3.45,AU,2023-04-22 12:34:34
277,hwange,-18.3693,26.5019,25.25,40,77%,0.86,ZW,2023-04-22 12:34:34
278,touros,-5.1989,-35.4608,29.460000000000036,61,16%,7.89,BR,2023-04-22 12:24:56
279,ulaangom,49.9811,92.0667,1.1899999999999977,32,89%,1.21,MN,2023-04-22 12:34:35
280,baikonur,45.6167,63.3167,19.960000000000036,13,100%,7.25,KZ,2023-04-22 12:34:35
281,tsiombe,-25.3,45.4833,20.80000000000001,91,15%,1.14,MG,2023-04-22 12:34:35
282,saipan,15.1355,145.701,27.390000000000043,100,100%,6.69,MP,2023-04-22 12:32:48
283,formosa do rio preto,-11.0483,-45.1931,33.34000000000003,26,17%,4.35,BR,2023-04-22 12:34:36
284,bintulu,3.1667,113.0333,27.230000000000018,89,20%,1.03,MY,2023-04-22 12:34:36
285,haiku-pauwela,20.9219,-156.3051,25.02000000000004,83,0%,2.06,US,2023-04-22 12:33:46
286,kosh-agach,50.0,88.6667,-6.539999999999964,59,81%,2.04,RU,2023-04-22 12:34:37
287,camana,-16.6228,-72.7111,23.680000000000007,70,16%,4.52,PE,2023-04-22 12:29:41
288,torghay,49.6339,63.4981,13.100000000000023,25,97%,8.08,KZ,2023-04-22 12:34:37
289,daund,18.4667,74.6,26.870000000000005,38,2%,6.39,IN,2023-04-22 12:34:38
290,princeville,45.7668,-61.2985,12.310000000000002,64,0%,8.05,CA,2023-04-22 12:34:38
291,wotje,9.4543,170.2367,27.439999999999998,75,26%,8.22,MH,2023-04-22 12:34:38
292,garachico,28.7781,-17.7646,20.060000000000002,68,75%,2.57,ES,2023-04-22 12:34:39
293,paraiso,9.8383,-83.8656,27.200000000000045,60,94%,1.87,CR,2023-04-22 12:34:39
294,shimoda,34.6667,138.95,11.720000000000027,76,96%,4.18,JP,2023-04-22 12:34:39
295,margate,51.3813,1.3862,12.610000000000014,72,95%,2.24,GB,2023-04-22 12:34:40
296,n'zeto,-7.2312,12.8666,26.090000000000032,80,98%,2.01,AO,2023-04-22 12:34:40
297,kolonia town,6.964,158.206,25.0,88,75%,1.54,FM,2023-04-22 12:34:40
298,berbera,10.4396,45.0143,28.510000000000048,78,93%,1.77,SO,2023-04-22 12:34:41
299,skeldon,5.8833,-57.1333,26.110000000000014,89,100%,1.16,GY,2023-04-22 12:34:41
300,kem',64.9555,34.5793,-2.7099999999999795,92,100%,3.01,RU,2023-04-22 12:34:41
301,neryungri,56.6709,124.6491,-10.979999999999961,94,100%,2.07,RU,2023-04-22 12:34:41
302,peace river,56.2501,-117.286,5.170000000000016,52,75%,3.09,CA,2023-04-22 12:33:24
303,nar'yan-mar,67.6713,53.087,0.30000000000001137,97,100%,8.7,RU,2023-04-22 12:25:18
304,hithadhoo,-0.6,73.0833,28.840000000000032,71,54%,0.4,MV,2023-04-22 12:25:52
305,al bawiti,28.3492,28.8659,25.54000000000002,22,94%,4.37,EG,2023-04-22 12:34:42
306,erenhot,43.6475,111.9767,7.82000000000005,17,100%,4.32,CN,2023-04-22 12:34:43
307,aykhal,66.0,111.5,-9.759999999999991,95,100%,3.19,RU,2023-04-22 12:30:20
308,vila franca do campo,37.7167,-25.4333,18.230000000000018,89,72%,6.21,PT,2023-04-22 12:34:43
309,lib,8.3122,167.3766,27.75,79,99%,8.92,MH,2023-04-22 12:34:43
310,bikenibeu village,1.3673,173.1241,27.980000000000018,83,20%,4.63,KI,2023-04-22 12:30:56
311,sao felix do xingu,-6.6447,-51.995,31.470000000000027,56,100%,2.84,BR,2023-04-22 12:34:44
312,camarinas,43.1311,-9.1817,16.77000000000004,90,80%,12.24,ES,2023-04-22 12:34:44
313,santiago de cao,-7.9589,-79.2392,26.07000000000005,69,89%,4.63,PE,2023-04-22 12:34:44
314,lebowakgomo,-24.2,29.5,20.5,39,11%,4.1,ZA,2023-04-22 12:34:45
315,broome,42.2506,-75.833,22.57000000000005,55,0%,9.77,US,2023-04-22 12:34:45
316,forster,-32.1667,152.5167,14.650000000000034,100,52%,2.25,AU,2023-04-22 12:34:45
317,corinth,37.9407,22.9573,14.379999999999995,84,81%,1.51,GR,2023-04-22 12:34:46
318,san antonio de pale,-1.4014,5.6325,28.33000000000004,72,87%,3.91,GQ,2023-04-22 12:26:20
319,antsiranana,-12.2787,49.2917,24.83000000000004,92,84%,3.39,MG,2023-04-22 12:34:46
320,jacmel,18.2342,-72.5347,28.910000000000025,58,14%,2.22,HT,2023-04-22 12:30:05
321,opuwo,-18.0607,13.84,23.33000000000004,50,53%,3.23,NA,2023-04-22 12:34:46
322,ntcheu,-14.8203,34.6359,17.810000000000002,94,84%,1.75,MW,2023-04-22 12:34:47
323,leninskoye,41.7589,69.3864,14.03000000000003,39,87%,1.88,KZ,2023-04-22 12:34:47
324,pekanbaru,0.5333,101.45,25.180000000000007,100,20%,0.0,ID,2023-04-22 12:34:47
325,vuktyl,63.8567,57.3094,0.5600000000000023,94,100%,4.05,RU,2023-04-22 12:34:48
326,gorontalo,0.5412,123.0595,23.83000000000004,94,100%,1.34,ID,2023-04-22 12:34:48
327,tual,-5.6667,132.75,28.340000000000032,77,100%,5.1,ID,2023-04-22 12:30:47
328,fort st. john,56.2499,-120.8529,4.939999999999998,60,75%,1.54,CA,2023-04-22 12:34:37
329,alamos,27.0167,-108.9333,33.85000000000002,7,66%,2.59,MX,2023-04-22 12:34:49
330,swakopmund,-22.6833,14.5333,20.470000000000027,83,100%,2.68,NA,2023-04-22 12:25:36
331,aswan,24.0934,32.907,34.610000000000014,11,0%,0.0,EG,2023-04-22 12:34:49
332,lompoc,34.6391,-120.4579,25.430000000000007,68,81%,8.05,US,2023-04-22 12:25:27
333,lautoka,-17.6167,177.4667,22.920000000000016,78,20%,0.0,FJ,2023-04-22 12:34:50
334,baotou,40.6522,109.8222,12.420000000000016,33,100%,2.1,CN,2023-04-22 12:34:50
335,hamilton,39.1834,-84.5333,15.600000000000023,48,20%,9.77,US,2023-04-22 12:32:02
336,konarka,19.9,86.1167,28.220000000000027,59,91%,4.84,IN,2023-04-22 12:34:50
337,tamiahua,21.2667,-97.45,27.620000000000005,72,48%,3.01,MX,2023-04-22 12:34:51
338,qaqortoq,60.7167,-46.0333,3.410000000000025,67,31%,1.2,GL,2023-04-22 12:25:44
339,ulladulla,-35.35,150.4667,13.200000000000045,93,20%,2.58,AU,2023-04-22 12:33:12
340,jianshui,23.6363,102.8264,20.600000000000023,46,27%,2.11,CN,2023-04-22 12:34:51
341,bandarbeyla,9.4942,50.8122,28.30000000000001,69,59%,4.63,SO,2023-04-22 12:26:37
342,qamdo,31.1667,97.2333,2.1100000000000136,37,44%,2.89,CN,2023-04-22 12:25:43
343,basco,20.4487,121.9702,24.720000000000027,77,99%,6.18,PH,2023-04-22 12:34:52
344,kratie,12.4881,106.0188,28.27000000000004,72,10%,3.96,KH,2023-04-22 12:30:03
345,fernandopolis,-20.2839,-50.2464,25.710000000000036,67,47%,2.12,BR,2023-04-22 12:34:53
346,myitkyina,25.3833,97.4,20.210000000000036,80,7%,1.49,MM,2023-04-22 12:34:53
347,binzhou,37.3667,118.0167,9.470000000000027,67,100%,1.53,CN,2023-04-22 12:34:53
348,taoudenni,22.6783,-3.9836,34.09000000000003,7,84%,4.3,ML,2023-04-22 12:32:22
349,portland,45.5234,-122.6762,14.470000000000027,93,100%,0.89,US,2023-04-22 12:25:43
350,boa vista,2.8197,-60.6733,27.99000000000001,74,75%,3.6,BR,2023-04-22 12:34:54
351,shorapur,16.5167,76.75,31.879999999999995,20,27%,7.52,IN,2023-04-22 12:34:54
352,fale old settlement,-9.3852,-171.2468,28.650000000000034,76,47%,4.55,TK,2023-04-22 12:25:40
353,pekan,3.4836,103.3996,27.060000000000002,89,79%,1.24,MY,2023-04-22 12:34:55
354,kirillov,59.863,38.3813,9.020000000000039,68,86%,3.69,RU,2023-04-22 12:34:55
355,ghat,24.9647,10.1728,30.75,10,13%,7.34,LY,2023-04-22 12:30:38
356,baki,-7.6128,110.7839,24.430000000000007,94,87%,1.18,ID,2023-04-22 12:34:55
357,prainha,-1.8,-53.48,28.629999999999995,77,100%,1.9,BR,2023-04-22 12:34:56
358,guayaramerin,-10.8368,-65.3614,31.03000000000003,62,20%,3.09,BO,2023-04-22 12:34:56
359,maun,-19.9833,23.4167,26.980000000000018,41,40%,1.54,BW,2023-04-22 12:34:56
360,palmer,42.1584,-72.3287,17.890000000000043,63,100%,3.09,US,2023-04-22 12:30:35
361,porto seguro,-16.4497,-39.0647,24.29000000000002,94,75%,2.57,BR,2023-04-22 12:34:57
362,icano,-28.9193,-65.3282,21.450000000000045,52,96%,3.39,AR,2023-04-22 12:34:57
363,lodwar,3.1191,35.5973,32.83000000000004,40,100%,9.6,KE,2023-04-22 12:34:57
364,safaga,26.7292,33.9365,24.510000000000048,49,95%,4.16,EG,2023-04-22 12:34:57
365,jutai,-5.1833,-68.9,25.189999999999998,85,100%,0.89,BR,2023-04-22 12:34:57
366,badger,64.8,-147.5333,-4.069999999999993,59,75%,10.29,US,2023-04-22 12:25:28
367,ixtapa,20.7,-105.2,24.57000000000005,69,75%,4.63,MX,2023-04-22 12:29:58
368,kenai,60.5544,-151.2583,3.9700000000000273,70,100%,1.54,US,2023-04-22 12:26:26
369,mtwara,-10.2667,40.1833,25.180000000000007,91,99%,3.74,TZ,2023-04-22 12:34:58
370,taco pozo,-25.6167,-63.2833,22.980000000000018,52,100%,0.75,AR,2023-04-22 12:34:58
371,lichuan,30.3,108.85,10.220000000000027,97,100%,2.26,CN,2023-04-22 12:30:40
372,saint-francois,46.4154,3.9054,12.689999999999998,88,75%,1.54,FR,2023-04-22 12:34:59
373,rio grande,-32.035,-52.0986,28.060000000000002,61,100%,3.52,BR,2023-04-22 12:34:59
374,colby,39.3958,-101.0524,6.010000000000048,46,40%,7.72,US,2023-04-22 12:34:59
375,barrouallie,13.2333,-61.2667,28.79000000000002,70,40%,4.12,VC,2023-04-22 12:35:00
376,carleton place,45.1334,-76.1494,20.920000000000016,69,100%,3.13,CA,2023-04-22 12:30:23
377,promyshlennaya,54.9159,85.6385,4.53000000000003,65,4%,2.15,RU,2023-04-22 12:35:00
378,songyuan,45.1171,124.8568,1.670000000000016,22,2%,3.1,CN,2023-04-22 12:35:00
379,murzuq,25.9155,13.9184,30.420000000000016,10,19%,5.38,LY,2023-04-22 12:32:36
380,winburg,-28.518,27.0093,15.220000000000027,28,82%,2.65,ZA,2023-04-22 12:35:01
381,richfield,44.8833,-93.283,2.2800000000000296,71,100%,7.72,US,2023-04-22 12:34:03
382,zelenogradsk,54.9589,20.4767,11.03000000000003,66,0%,2.0,RU,2023-04-22 12:35:02
383,dzialdowo,53.2396,20.17,14.430000000000007,58,8%,1.29,PL,2023-04-22 12:34:27
384,egilsstadir,65.2653,-14.3948,-0.049999999999954525,64,75%,6.17,IS,2023-04-22 12:26:25
385,manacapuru,-3.2997,-60.6206,25.57000000000005,87,100%,2.29,BR,2023-04-22 12:35:03
386,arno,60.1167,18.6333,7.100000000000023,69,19%,4.24,SE,2023-04-22 12:35:03
387,awjilah,29.1081,21.2869,30.120000000000005,11,100%,5.59,LY,2023-04-22 12:29:30
388,nefteyugansk,61.0998,72.6035,-0.12999999999999545,98,92%,2.14,RU,2023-04-22 12:35:04
389,rabigh,22.7986,39.0349,28.370000000000005,59,0%,2.64,SA,2023-04-22 12:35:05
390,padang,-0.9492,100.3543,25.03000000000003,90,100%,1.8,ID,2023-04-22 12:33:36
391,narvik,68.4384,17.4272,-0.3299999999999841,85,100%,2.36,NO,2023-04-22 12:35:05
392,ishigaki,24.3448,124.1572,20.07000000000005,88,6%,2.06,JP,2023-04-22 12:35:06
393,severo-yeniseyskiy,60.3725,93.0408,-10.439999999999998,97,78%,1.84,RU,2023-04-22 12:25:32
394,harrisonburg,38.4496,-78.8689,14.460000000000036,92,100%,3.09,US,2023-04-22 12:35:06
395,gejiu,23.306,103.1635,15.350000000000023,48,24%,1.3,CN,2023-04-22 12:35:07
396,utrik,11.2278,169.8474,26.900000000000034,78,44%,8.9,MH,2023-04-22 12:25:50
397,tara,56.8944,74.371,8.160000000000025,88,100%,5.24,RU,2023-04-22 12:35:08
398,naryshkino,52.9678,35.7268,9.060000000000002,64,32%,3.18,RU,2023-04-22 12:35:08
399,tweed heads,-28.1817,153.547,19.439999999999998,77,79%,5.14,AU,2023-04-22 12:32:24
400,la grande,45.3246,-118.0877,7.8700000000000045,73,100%,0.89,US,2023-04-22 12:35:09
401,kirensk,57.7853,108.1119,-6.829999999999984,99,90%,0.94,RU,2023-04-22 12:35:09
402,savran,48.1322,30.0825,10.79000000000002,68,65%,1.74,UA,2023-04-22 12:35:09
403,malango,-2.9627,119.9001,19.82000000000005,97,100%,0.8,ID,2023-04-22 12:35:10
404,pangody,65.85,74.4859,-0.01999999999998181,99,100%,2.5,RU,2023-04-22 12:35:10
405,deniliquin,-35.5333,144.9667,12.950000000000045,81,1%,2.81,AU,2023-04-22 12:35:10
406,cidreira,-30.1811,-50.2056,22.75,58,87%,3.19,BR,2023-04-22 12:29:51
407,jendouba,36.5011,8.7802,27.010000000000048,18,8%,5.51,TN,2023-04-22 12:35:11
408,newman,37.3138,-121.0208,22.810000000000002,45,96%,5.81,US,2023-04-22 12:25:56
409,puerto lempira,15.2667,-83.7667,31.08000000000004,66,40%,4.12,HN,2023-04-22 12:35:12
410,tofol,5.3248,163.0078,28.379999999999995,78,100%,6.37,FM,2023-04-22 12:35:12
411,st anne,49.715,-2.2042,11.25,93,75%,6.17,GG,2023-04-22 12:35:13
412,galax,36.6612,-80.924,15.080000000000041,87,100%,5.14,US,2023-04-22 12:31:05
413,yung shue wan,22.2333,114.1167,23.75,89,84%,6.75,HK,2023-04-22 12:35:13
414,arkhangel'sk,64.5401,40.5433,0.060000000000002274,100,100%,2.0,RU,2023-04-22 12:35:14
415,kingscliff,-28.2667,153.5667,19.310000000000002,77,77%,5.14,AU,2023-04-22 12:30:38
416,peniscola,40.3359,0.3613,17.410000000000025,82,82%,2.45,ES,2023-04-22 12:30:32
417,watertown,42.3709,-71.1828,14.010000000000048,76,100%,7.72,US,2023-04-22 12:30:37
418,iskateley,67.6803,53.1512,0.21000000000003638,97,100%,8.8,RU,2023-04-22 12:25:43
419,blenheim,-41.516,173.9528,12.32000000000005,94,29%,1.27,NZ,2023-04-22 12:30:21
420,tirebolu,41.0069,38.8139,11.939999999999998,91,100%,0.96,TR,2023-04-22 12:35:16
421,al bayda',32.7627,21.7551,18.629999999999995,42,68%,8.84,LY,2023-04-22 12:35:17
422,bhamo,24.2667,97.2333,23.79000000000002,51,33%,1.06,MM,2023-04-22 12:35:17
423,dahab,28.501,34.5134,27.0,33,83%,5.57,EG,2023-04-22 12:35:18
424,cacocum,20.7374,-76.3279,30.180000000000007,51,40%,1.54,CU,2023-04-22 12:35:18
425,howard,39.2504,-76.933,23.82000000000005,64,100%,3.13,US,2023-04-22 12:33:27
426,tharad,24.3961,71.6267,28.700000000000045,48,1%,6.61,IN,2023-04-22 12:35:19
427,howrah,22.5892,88.3103,30.0,45,75%,6.17,IN,2023-04-22 12:35:19
428,fortaleza,-3.7227,-38.5247,31.07000000000005,55,20%,7.72,BR,2023-04-22 12:32:38
429,gilgit,35.9221,74.3087,10.020000000000039,38,0%,3.36,PK,2023-04-22 12:35:20
430,chagoda,59.164,35.3285,8.32000000000005,71,79%,2.26,RU,2023-04-22 12:35:20
431,salalah,17.0151,54.0924,29.05000000000001,70,0%,2.06,OM,2023-04-22 12:35:21
432,azul,-36.777,-59.8585,21.77000000000004,42,1%,4.02,AR,2023-04-22 12:35:21
433,seka,17.9285,103.9552,29.150000000000034,48,53%,3.57,TH,2023-04-22 12:35:22
434,mount isa,-20.7333,139.5,20.870000000000005,35,0%,3.6,AU,2023-04-22 12:30:52
435,nikel,69.4128,30.222,-2.8999999999999773,72,100%,7.13,RU,2023-04-22 12:35:23
436,bikramganj,25.2,84.25,28.03000000000003,35,94%,3.99,IN,2023-04-22 12:35:23
437,oromocto,45.8351,-66.4792,13.170000000000016,52,0%,5.14,CA,2023-04-22 12:35:24
438,inari,68.906,27.0288,-1.8899999999999864,74,96%,5.49,FI,2023-04-22 12:35:24
439,at taj,24.2049,23.2857,28.810000000000002,17,94%,3.72,LY,2023-04-22 12:35:25
440,puerto aysen,-45.4,-72.7,13.470000000000027,78,87%,2.06,CL,2023-04-22 12:35:25
441,dawson creek,55.7666,-120.2362,7.800000000000011,46,20%,2.06,CA,2023-04-22 12:35:25
442,kalymnos,36.95,26.9833,19.74000000000001,63,0%,3.09,GR,2023-04-22 12:35:26
443,gunnison,38.7,-107.0673,0.5,72,99%,3.43,US,2023-04-22 12:35:26
444,kailua-kona,19.6406,-155.9956,25.28000000000003,87,40%,2.68,US,2023-04-22 12:23:25
445,maceio,-9.6658,-35.7353,30.689999999999998,62,40%,6.17,BR,2023-04-22 12:35:28
446,trincomalee,8.5711,81.2335,25.80000000000001,81,100%,3.57,LK,2023-04-22 12:26:30
447,hobyo,5.3505,48.5268,28.850000000000023,74,99%,6.01,SO,2023-04-22 12:29:47
448,al bayda,32.7627,21.7551,18.629999999999995,42,68%,8.84,LY,2023-04-22 12:35:29
449,chibougamau,49.9168,-74.3659,3.7900000000000205,93,100%,2.57,CA,2023-04-22 12:25:47
450,firuzabad,28.8438,52.5707,19.58000000000004,28,54%,1.84,IR,2023-04-22 12:35:29
451,zhezqazghan,47.7833,67.7667,10.32000000000005,25,40%,4.0,KZ,2023-04-22 12:35:30
452,saint marys,30.7305,-81.5465,30.590000000000032,50,75%,2.06,US,2023-04-22 12:35:30
453,iguape,-24.7081,-47.5553,23.350000000000023,68,21%,2.81,BR,2023-04-22 12:34:30
454,kindu,-2.95,25.95,22.090000000000032,97,93%,0.5,CD,2023-04-22 12:35:31
455,nanchang,28.6833,115.8833,13.330000000000041,89,100%,4.11,CN,2023-04-22 12:35:31
456,ulsteinvik,62.3432,5.8487,11.5,75,28%,8.49,NO,2023-04-22 12:35:31
457,kampene,-3.6,26.6667,21.0,99,100%,0.39,CD,2023-04-22 12:30:22
458,taza,34.25,-3.75,23.970000000000027,23,45%,7.04,MA,2023-04-22 12:35:32
459,yangjiang,21.85,111.9667,23.730000000000018,96,99%,3.31,CN,2023-04-22 12:35:33
460,harstad,68.799,16.5293,-0.339999999999975,97,100%,6.26,NO,2023-04-22 12:29:38
461,namie,37.4833,141.0,8.170000000000016,61,69%,5.15,JP,2023-04-22 12:35:34
462,dawei,14.0833,98.2,25.590000000000032,89,4%,0.61,MM,2023-04-22 12:35:34
463,alice springs,-23.7,133.8833,10.75,82,0%,0.0,AU,2023-04-22 12:26:13
464,mana,5.6592,-53.7767,27.960000000000036,77,100%,4.21,GF,2023-04-22 12:35:35
465,lerwick,60.1545,-1.1494,8.0,80,56%,11.17,GB,2023-04-22 12:35:35
466,ola,59.5833,151.2833,-1.3100000000000023,75,100%,11.82,RU,2023-04-22 12:27:47
467,ouesso,1.6136,16.0517,21.74000000000001,95,100%,0.67,CG,2023-04-22 12:35:35
468,vernon,50.2581,-119.2691,10.520000000000039,47,100%,1.54,CA,2023-04-22 12:35:35
469,tarko-sale,64.9225,77.785,1.2600000000000477,98,100%,6.86,RU,2023-04-22 12:35:36
470,doma,8.3833,8.35,25.49000000000001,76,78%,8.26,NG,2023-04-22 12:35:36
471,metahara,8.9,39.9167,24.840000000000032,66,88%,1.32,ET,2023-04-22 12:35:36
472,sisimiut,66.9395,-53.6735,1.410000000000025,84,100%,2.7,GL,2023-04-22 12:29:41
473,gwadar,25.1216,62.3254,26.920000000000016,69,0%,4.36,PK,2023-04-22 12:35:37
474,road town,18.4167,-64.6167,29.05000000000001,65,40%,4.12,VG,2023-04-22 12:33:57
475,amroli,21.3,72.85,27.930000000000007,65,0%,4.48,IN,2023-04-22 12:35:37
476,tralee,52.2704,-9.7026,9.140000000000043,87,100%,1.54,IE,2023-04-22 12:26:14
477,xilin hot,43.9667,116.0333,1.3400000000000318,21,78%,3.92,CN,2023-04-22 12:35:38
478,phan thiet,10.9333,108.1,26.55000000000001,87,25%,1.71,VN,2023-04-22 12:29:55
479,monze,-16.2833,27.4833,21.620000000000005,49,87%,2.65,ZM,2023-04-22 12:35:38
480,kruisfontein,-34.0033,24.7314,14.379999999999995,57,100%,0.07,ZA,2023-04-22 12:29:51
481,belmonte,-15.8631,-38.8828,25.55000000000001,86,74%,5.59,BR,2023-04-22 12:30:05
482,shalqar,47.8333,59.6,14.560000000000002,44,89%,4.03,KZ,2023-04-22 12:35:39
483,kencong,-8.2833,113.3667,24.340000000000032,91,19%,1.36,ID,2023-04-22 12:35:39
484,devils lake,48.1128,-98.8651,2.0600000000000023,69,0%,6.69,US,2023-04-22 12:35:39
485,shingu,33.7333,135.9833,10.360000000000014,52,69%,2.12,JP,2023-04-22 12:35:40
486,veraval,20.9,70.3667,26.30000000000001,82,0%,6.3,IN,2023-04-22 12:35:40
487,macau,22.2006,113.5461,24.360000000000014,100,40%,8.23,MO,2023-04-22 12:35:40
488,el nido,11.1858,119.3956,27.970000000000027,80,29%,3.15,PH,2023-04-22 12:35:40
489,pico truncado,-46.7949,-67.9573,17.310000000000002,21,23%,11.9,AR,2023-04-22 12:35:41
490,alta,69.9689,23.2717,-3.2299999999999613,79,100%,6.69,NO,2023-04-22 12:35:41
491,dzuunharaa,48.8523,106.4579,-1.6299999999999955,48,1%,1.51,MN,2023-04-22 12:35:41
492,sogndal,61.2283,7.1003,14.210000000000036,46,32%,1.03,NO,2023-04-22 12:35:41
493,gobabis,-22.45,18.9667,24.180000000000007,40,100%,3.68,NA,2023-04-22 12:35:41
494,al hazm,16.1641,44.7769,28.24000000000001,33,100%,1.12,YE,2023-04-22 12:35:42
495,zavoronezhskoye,52.8801,40.5526,9.170000000000016,74,98%,1.8,RU,2023-04-22 12:35:42
496,varginha,-21.5514,-45.4303,21.79000000000002,75,50%,1.26,BR,2023-04-22 12:35:42
497,karachev,53.1229,34.9852,8.850000000000023,62,59%,2.23,RU,2023-04-22 12:35:42
498,sur,22.5667,59.5289,29.930000000000007,52,63%,4.36,OM,2023-04-22 12:29:18
499,hede,33.7681,120.2517,12.07000000000005,83,100%,3.57,CN,2023-04-22 12:35:43
500,al kharijah,25.4514,30.5464,28.629999999999995,11,67%,3.86,EG,2023-04-22 12:35:43
501,manga,11.6636,-1.0731,38.910000000000025,12,3%,2.5,BF,2023-04-22 12:35:44
502,luwuk,-0.9516,122.7875,24.840000000000032,87,100%,1.46,ID,2023-04-22 12:29:35
503,ariquemes,-9.9133,-63.0408,27.160000000000025,90,96%,0.35,BR,2023-04-22 12:35:44
504,nemuro,43.3236,145.575,2.740000000000009,75,11%,6.96,JP,2023-04-22 12:25:00
505,codo,-4.4553,-43.8856,31.920000000000016,51,55%,2.12,BR,2023-04-22 12:35:44
506,charters towers,-20.1,146.2667,19.150000000000034,82,98%,4.56,AU,2023-04-22 12:35:45
507,christchurch,-43.5333,172.6333,13.28000000000003,95,100%,3.09,NZ,2023-04-22 12:28:17
508,along,28.1667,94.7667,16.620000000000005,97,72%,0.79,IN,2023-04-22 12:35:45
509,eseka,3.65,10.7667,24.060000000000002,90,64%,1.02,CM,2023-04-22 12:35:45
510,puerto armuelles,8.2833,-82.8667,29.99000000000001,69,98%,4.16,PA,2023-04-22 12:35:46
511,cururupu,-1.8283,-44.8683,30.710000000000036,60,61%,3.48,BR,2023-04-22 12:35:46
512,sorong,-0.8833,131.25,25.760000000000048,89,91%,2.47,ID,2023-04-22 12:35:46
513,tashtagol,52.7657,87.8894,-2.9499999999999886,90,79%,1.14,RU,2023-04-22 12:35:46
514,kabare,-2.4683,28.8242,17.480000000000018,97,100%,0.94,CD,2023-04-22 12:35:47
515,gebeit,21.0667,36.3167,26.710000000000036,48,3%,3.02,SD,2023-04-22 12:35:47
516,northam,51.0333,-4.2167,9.660000000000025,91,100%,4.39,GB,2023-04-22 12:28:55
517,santa teresa del tuy,10.2341,-66.6631,23.930000000000007,93,100%,0.11,VE,2023-04-22 12:35:47
518,falenki,58.3613,51.5946,7.160000000000025,58,12%,2.5,RU,2023-04-22 12:35:48
519,westport,41.1415,-73.3579,19.49000000000001,77,100%,10.8,US,2023-04-22 12:28:34
520,aginskoye,51.1,114.53,-3.25,29,68%,1.24,RU,2023-04-22 12:35:48
521,korhogo,9.45,-5.6333,36.120000000000005,23,38%,1.55,CI,2023-04-22 12:35:48
522,dexter,36.7959,-89.9579,15.850000000000023,42,7%,6.59,US,2023-04-22 12:35:49
523,bubaque,11.2833,-15.8333,26.220000000000027,69,45%,10.79,GW,2023-04-22 12:28:56
524,culebra,18.303,-65.301,29.05000000000001,69,4%,3.81,PR,2023-04-22 12:35:49
525,north bend,43.4065,-124.2243,18.470000000000027,93,100%,2.06,US,2023-04-22 12:35:49
526,grand rapids,42.9634,-85.6681,8.920000000000016,57,100%,5.66,US,2023-04-22 12:35:08
527,pacific grove,36.6177,-121.9166,18.55000000000001,85,40%,4.47,US,2023-04-22 12:27:53
528,dunedin,-45.8742,170.5036,11.560000000000002,10,27%,2.77,NZ,2023-04-22 12:30:24
529,del rio,29.3627,-100.8968,25.129999999999995,70,100%,7.72,US,2023-04-22 12:35:50
530,karratha,-20.7377,116.8463,26.129999999999995,60,72%,3.08,AU,2023-04-22 12:26:41
531,tarauaca,-8.1614,-70.7656,32.56,51,71%,0.19,BR,2023-04-22 12:35:51
532,griffith,41.5284,-87.4237,7.28000000000003,61,100%,7.72,US,2023-04-22 12:35:51
533,dellys,36.9172,3.9131,17.08000000000004,72,100%,1.68,DZ,2023-04-22 12:33:26
534,nueva guinea,11.6876,-84.4562,34.370000000000005,34,21%,3.49,NI,2023-04-22 12:35:51
535,mhamid,29.82,-5.72,32.73000000000002,10,0%,0.03,MA,2023-04-22 12:35:52
536,shimanovsk,52.0,127.7,-1.009999999999991,77,100%,4.91,RU,2023-04-22 12:35:52
537,hafnarfjordur,64.0671,-21.9377,4.930000000000007,87,100%,2.57,IS,2023-04-22 12:35:52
538,namibe,-15.1961,12.1522,26.03000000000003,78,72%,3.81,AO,2023-04-22 12:26:40
539,santa elena de uairen,4.6167,-61.1333,20.75,90,100%,2.06,VE,2023-04-22 12:35:53
540,luanda,-8.8368,13.2343,28.0,78,40%,4.63,AO,2023-04-22 12:30:59
541,poli,-3.3333,36.8,15.490000000000009,97,100%,1.66,TZ,2023-04-22 12:35:53
542,kokopo,-4.352,152.2633,25.110000000000014,83,83%,2.12,PG,2023-04-22 12:35:53
543,makokou,0.5738,12.8642,21.560000000000002,97,83%,1.37,GA,2023-04-22 12:35:54
544,ulysses,37.5814,-101.3552,5.760000000000048,42,0%,5.66,US,2023-04-22 12:32:16
545,anna,51.4842,40.4299,7.2000000000000455,91,100%,2.68,RU,2023-04-22 12:35:54
546,longido,-2.7333,36.6833,18.54000000000002,85,100%,4.9,TZ,2023-04-22 12:35:54
547,grants pass,42.439,-123.3284,16.129999999999995,76,100%,1.54,US,2023-04-22 12:34:05
548,aral,40.5156,81.2636,11.260000000000048,59,63%,6.57,CN,2023-04-22 12:35:55
549,colonia,50.9333,6.95,16.129999999999995,79,75%,4.12,DE,2023-04-22 12:35:55
550,galesong,-5.3166,119.3661,25.010000000000048,85,100%,2.32,ID,2023-04-22 12:35:55
551,porto novo,6.4965,2.6036,30.900000000000034,78,100%,4.87,BJ,2023-04-22 12:35:55
552,magadan,59.5667,150.8,-1.6499999999999773,75,99%,11.03,RU,2023-04-22 12:28:58
553,katsuura,35.1333,140.3,13.5,61,99%,6.06,JP,2023-04-22 12:29:25
554,sastre,-31.7676,-61.8289,24.82000000000005,30,100%,3.13,AR,2023-04-22 12:35:56
555,olinda,-8.0089,-34.8553,28.850000000000023,65,75%,4.12,BR,2023-04-22 12:35:56
556,kargopol',61.5071,38.9456,4.560000000000002,97,99%,2.54,RU,2023-04-22 12:35:56
557,chernomorskoye,45.5039,32.6997,10.510000000000048,82,94%,4.04,UA,2023-04-22 12:35:57
558,gamba,-2.65,10.0,26.03000000000003,83,100%,3.07,GA,2023-04-22 12:35:57
559,nuku'alofa,-21.1333,-175.2,23.189999999999998,88,20%,3.6,TO,2023-04-22 12:35:57
560,murun-kuren,49.6342,100.1625,-1.2299999999999613,24,39%,1.03,MN,2023-04-22 12:35:57
561,mpulungu,-8.7623,31.1141,23.060000000000002,85,73%,2.61,ZM,2023-04-22 12:34:16
562,luganville,-15.5333,167.1667,25.910000000000025,86,95%,3.07,VU,2023-04-22 12:35:58
563,micco,27.8806,-80.5003,30.05000000000001,65,34%,4.02,US,2023-04-22 12:35:58
564,altoona,40.5187,-78.3947,15.060000000000002,85,100%,1.34,US,2023-04-22 12:35:58
565,tutoia,-2.7619,-42.2744,30.53000000000003,60,75%,4.5,BR,2023-04-22 12:32:07
566,bentiu,9.2333,29.8333,34.110000000000014,26,100%,2.07,SS,2023-04-22 12:35:59
567,jugsalai,22.7667,86.1833,29.160000000000025,35,98%,3.12,IN,2023-04-22 12:35:59
568,pisco,-13.7,-76.2167,28.03000000000003,57,17%,9.26,PE,2023-04-22 12:35:59
569,cooma,-36.2333,149.1333,6.970000000000027,94,0%,1.15,AU,2023-04-22 12:35:59
570,obo,5.3998,26.4869,25.55000000000001,67,100%,2.73,CF,2023-04-22 12:36:00
571,maracaibo,10.6317,-71.6406,29.78000000000003,62,100%,0.43,VE,2023-04-22 12:36:00
572,alaghsas,17.0187,8.0168,38.94,9,20%,6.69,NE,2023-04-22 12:29:50
573,valdivia,-39.8142,-73.2459,14.050000000000011,41,5%,1.0,CL,2023-04-22 12:36:00
574,necochea,-38.5473,-58.7368,15.629999999999995,62,17%,4.6,AR,2023-04-22 12:36:01
575,hinton,53.4001,-117.5857,6.600000000000023,57,100%,1.44,CA,2023-04-22 12:36:01
576,valparaiso,-33.0393,-71.6273,18.129999999999995,72,40%,5.66,CL,2023-04-22 12:36:01
