City_ID,City,Lat,Lng,Max Temp,Humidity,Cloudiness,Wind Speed,Country,Date
0,oruro,-17.9833,-67.15,62.51000000000008,12,0,2.13,BO,2023-04-22 13:06:42
1,kharkhorin,47.1975,102.8238,28.220000000000063,28,4,1.79,MN,2023-04-22 13:06:43
2,acapulco de juarez,16.8634,-99.8901,85.82000000000006,66,75,3.09,MX,2023-04-22 13:06:33
3,cambria,35.5641,-121.0808,74.4260000000001,65,98,3.43,US,2023-04-22 13:06:43
4,cacequi,-29.8836,-54.825,79.46600000000001,32,90,2.37,BR,2023-04-22 13:03:05
5,albany,42.6001,-73.9662,66.88399999999999,63,100,2.24,US,2023-04-22 13:00:08
6,waitangi,-43.9535,-176.5597,51.81800000000008,96,78,9.6,NZ,2023-04-22 13:06:44
7,sangmelima,2.9333,11.9833,70.16000000000008,98,92,1.42,CM,2023-04-22 13:06:44
8,papatowai,-46.5619,169.4708,53.11400000000003,87,91,3.59,NZ,2023-04-22 13:06:44
9,murzuq,25.9155,13.9184,86.0,10,5,5.55,LY,2023-04-22 13:06:45
10,mejit,10.2753,170.8646,81.14000000000001,76,41,8.61,MH,2023-04-22 13:06:45
11,sosnovo-ozerskoye,52.5249,111.5418,17.222000000000037,59,19,1.55,RU,2023-04-22 13:06:45
12,queenstown,-31.8976,26.8753,58.49600000000005,26,100,4.99,ZA,2023-04-22 13:06:45
13,port-aux-francais,-49.35,70.2167,46.07600000000009,94,100,16.63,TF,2023-04-22 13:06:46
14,avarua,-21.2078,-159.775,75.25400000000005,78,40,2.57,CK,2023-04-22 13:06:46
15,klyuchi,52.2667,79.1667,33.74600000000005,79,29,3.79,RU,2023-04-22 13:06:46
16,adamstown,-25.066,-130.1015,77.32400000000001,86,100,9.32,PN,2023-04-22 13:06:47
17,tralee,52.2704,-9.7026,48.45200000000008,87,100,1.54,IE,2023-04-22 13:01:53
18,bethel,41.3712,-73.414,67.64000000000001,75,75,6.17,US,2023-04-22 13:06:47
19,tiksi,71.6872,128.8694,2.4980000000000224,98,24,2.49,RU,2023-04-22 13:06:47
20,margaret river,-33.95,115.0667,61.03399999999999,51,1,2.36,AU,2023-04-22 13:06:47
21,jagannathpur,22.2333,85.65,78.47600000000008,44,100,3.31,IN,2023-04-22 13:06:48
22,jimeta,9.2833,12.4667,96.06200000000005,25,83,2.26,NG,2023-04-22 13:06:48
23,howrah,22.5892,88.3103,84.2,48,75,5.66,IN,2023-04-22 13:06:48
24,vorgashor,67.5833,63.95,27.446000000000048,94,99,5.69,RU,2023-04-22 13:06:48
25,yellowknife,62.456,-114.3525,41.55800000000001,52,100,5.81,CA,2023-04-22 13:06:42
26,podgorenskiy,50.405,39.6429,45.08600000000007,93,100,2.0,RU,2023-04-22 13:06:49
27,juneau,58.3019,-134.4197,44.42000000000006,95,100,1.28,US,2023-04-22 13:02:11
28,puerto ayora,-0.7393,-90.3518,85.96400000000003,88,73,4.92,EC,2023-04-22 13:06:22
29,grytviken,-54.2811,-36.5092,34.43000000000004,78,48,10.99,GS,2023-04-22 13:06:49
30,enewetak,11.3474,162.3373,79.17800000000007,86,100,8.47,MH,2023-04-22 13:06:50
31,aykhal,66.0,111.5,14.666000000000007,94,100,3.38,RU,2023-04-22 13:06:50
32,soto la marina,23.7667,-98.2167,88.01600000000002,51,78,3.93,MX,2023-04-22 13:06:50
33,suva,-18.1416,178.4415,71.07800000000006,94,40,1.03,FJ,2023-04-22 13:00:58
34,balnearia,-31.0088,-62.6673,76.91000000000008,30,100,2.22,AR,2023-04-22 13:06:51
35,kodiak,57.79,-152.4072,49.51400000000004,32,0,4.63,US,2023-04-22 13:06:51
36,misratah,32.3754,15.0925,63.64400000000008,84,0,9.62,LY,2023-04-22 13:06:51
37,alnwick,55.4132,-1.7056,47.67800000000007,93,75,2.57,GB,2023-04-22 13:06:51
38,hawaiian paradise park,19.5933,-154.9731,75.03800000000004,91,40,2.57,US,2023-04-22 13:06:52
39,sarangani,5.4033,125.4636,83.2100000000001,75,61,3.8,PH,2023-04-22 13:06:52
40,sawakin,19.1059,37.3321,81.12200000000004,78,0,1.4,SD,2023-04-22 13:06:52
41,chakradharpur,22.7,85.6333,79.21400000000003,42,100,3.15,IN,2023-04-22 13:06:52
42,kushiro,42.975,144.3747,35.51000000000008,77,13,3.69,JP,2023-04-22 13:06:53
43,blackmans bay,-43.0167,147.3167,53.72600000000009,66,50,4.83,AU,2023-04-22 13:06:53
44,stanley,54.868,-1.6985,50.792,94,100,1.03,GB,2023-04-22 13:06:53
45,areia branca,-4.9561,-37.1369,95.19800000000004,52,9,6.9,BR,2023-04-22 13:01:59
46,whitehorse,60.7161,-135.0538,35.312000000000054,59,79,4.02,CA,2023-04-22 13:06:53
47,kingston,17.997,-76.7936,88.25,62,4,1.79,JM,2023-04-22 13:06:54
48,st. john's,47.5649,-52.7093,39.668000000000085,97,100,12.07,CA,2023-04-22 13:02:19
49,badger,64.8,-147.5333,25.52000000000006,56,75,10.8,US,2023-04-22 13:06:54
50,santa cruz,-17.8,-63.1667,83.04800000000003,49,0,2.02,BO,2023-04-22 13:06:54
51,la'ie,21.6477,-157.9253,78.76400000000004,81,20,5.93,US,2023-04-22 13:06:55
52,luganville,-15.5333,167.1667,79.44800000000004,83,96,3.1,VU,2023-04-22 13:06:55
53,san angelo,31.4638,-100.437,83.94800000000004,44,20,6.17,US,2023-04-22 13:04:03
54,nogliki,51.8333,143.1667,29.60600000000003,91,100,7.24,RU,2023-04-22 13:06:55
55,puerto natales,-51.7236,-72.4875,59.45,44,75,10.29,CL,2023-04-22 13:03:06
56,basoko,1.2391,23.616,71.816,88,100,1.21,CD,2023-04-22 13:06:56
57,bloomfield,40.8068,-74.1854,72.98600000000008,70,100,6.17,US,2023-04-22 13:02:39
58,kurtamysh,54.9103,64.4319,47.714000000000034,83,100,5.4,RU,2023-04-22 13:06:56
59,dombarovskiy,50.7587,59.5386,52.23200000000001,62,53,5.2,RU,2023-04-22 13:06:57
60,soe,-9.8607,124.284,65.96600000000001,94,68,2.11,ID,2023-04-22 13:06:57
61,lihue,21.9789,-159.3672,75.36200000000005,88,75,1.54,US,2023-04-22 13:06:57
62,quchan,37.106,58.5095,65.87600000000009,36,99,3.17,IR,2023-04-22 13:06:57
63,port saint john's,-31.6229,29.5448,67.49600000000005,54,95,2.24,ZA,2023-04-22 13:06:58
64,lower hutt,-41.2167,174.9167,58.31600000000001,96,100,2.57,NZ,2023-04-22 13:05:24
65,aral,40.5156,81.2636,52.25,62,63,5.92,CN,2023-04-22 13:06:58
66,akranes,64.3218,-22.0749,41.55800000000001,74,59,1.86,IS,2023-04-22 13:06:58
67,hermanus,-34.4187,19.2345,59.93600000000007,67,100,6.3,ZA,2023-04-22 13:06:59
68,la ronge,55.1001,-105.2842,44.852000000000075,23,0,2.57,CA,2023-04-22 12:57:29
69,wailua homesteads,22.0669,-159.378,74.75,90,75,2.68,US,2023-04-22 13:06:31
70,voghera,44.9947,9.0086,65.858,77,98,1.01,IT,2023-04-22 13:06:59
71,saint george's,12.0564,-61.7485,81.77000000000007,72,30,6.08,GD,2023-04-22 13:07:00
72,roma,43.2128,-75.4557,70.82600000000009,55,0,8.23,US,2023-04-22 13:05:58
73,luderitz,-26.6481,15.1594,59.018000000000086,66,57,3.91,NA,2023-04-22 13:07:00
74,thompson,55.7435,-97.8558,28.922000000000036,84,100,2.72,CA,2023-04-22 13:06:47
75,cedeira,43.6797,-8.0209,60.38600000000007,82,53,8.43,ES,2023-04-22 13:07:00
76,nuuk,64.1835,-51.7216,36.21200000000006,87,75,4.63,GL,2023-04-22 13:07:01
77,naze,28.3667,129.4833,65.91200000000006,74,80,7.64,JP,2023-04-22 13:07:01
78,okotoks,50.7289,-113.9828,44.79800000000002,60,42,1.34,CA,2023-04-22 13:06:03
79,tarauaca,-8.1614,-70.7656,90.608,51,71,0.19,BR,2023-04-22 13:05:54
80,port lincoln,-34.7333,135.8667,61.41200000000006,86,0,4.21,AU,2023-04-22 13:07:02
81,chyorny yar,48.0624,46.1091,52.44800000000002,79,93,4.17,RU,2023-04-22 13:07:02
82,levuka,50.1834,-105.4011,31.208000000000006,87,100,3.62,CA,2023-04-22 13:07:03
83,lima,-12.0432,-77.0282,79.05200000000008,57,0,8.23,PE,2023-04-22 13:05:49
84,oujda-angad,34.6805,-1.9076,68.63000000000005,43,40,7.2,MA,2023-04-22 13:07:03
85,rongelap,11.1635,166.8941,80.72600000000008,79,99,8.95,MH,2023-04-22 13:07:04
86,borovskoy,53.8,64.15,51.63800000000005,53,100,6.92,KZ,2023-04-22 13:07:04
87,dudinka,69.4058,86.1778,32.57600000000009,98,100,4.78,RU,2023-04-22 13:07:05
88,qaqortoq,60.7167,-46.0333,38.13800000000005,69,40,1.47,GL,2023-04-22 13:07:05
89,udachny,66.4167,112.4,14.57600000000009,96,100,2.22,RU,2023-04-22 13:07:05
90,atafu village,-8.5421,-172.5159,83.76800000000009,75,36,4.23,TK,2023-04-22 13:07:06
91,bratsk,56.1325,101.6142,27.08600000000007,96,85,2.06,RU,2023-04-22 13:07:06
92,ushuaia,-54.8,-68.3,51.458000000000006,54,75,7.2,AR,2023-04-22 13:06:37
93,uturoa,-16.7333,-151.4333,81.15800000000002,79,100,5.12,PF,2023-04-22 13:06:45
94,bilibino,68.0546,166.4372,16.214000000000034,73,57,1.8,RU,2023-04-22 13:07:07
95,constantia,44.1833,28.65,50.684,77,29,3.74,RO,2023-04-22 13:07:07
96,saipan,15.1355,145.701,81.30200000000008,100,40,7.2,MP,2023-04-22 13:07:07
97,westport,41.1415,-73.3579,69.09800000000003,76,100,3.58,US,2023-04-22 13:07:08
98,labrador city,52.9463,-66.9114,35.94199999999999,95,100,3.42,CA,2023-04-22 13:07:08
99,port mathurin,-19.6833,63.4167,79.32200000000003,79,40,9.1,MU,2023-04-22 13:07:08
100,al fuwayliq,26.4432,43.2534,80.07800000000006,28,11,0.5,SA,2023-04-22 13:07:09
101,kolonia town,6.964,158.206,77.0,88,75,0.0,FM,2023-04-22 13:07:09
102,edinburgh of the seven seas,-37.0676,-12.3116,59.97200000000004,63,5,12.24,SH,2023-04-22 13:07:09
103,nikolayevsk-on-amure,53.1406,140.73,29.138000000000044,97,100,2.98,RU,2023-04-22 13:07:09
104,shakawe,-18.3667,21.85,77.0,38,95,1.8,BW,2023-04-22 13:07:10
105,port elizabeth,-33.918,25.5701,60.314000000000036,74,100,2.01,ZA,2023-04-22 13:07:10
106,cooper's town,26.8667,-77.5167,75.14600000000004,73,69,3.95,BS,2023-04-22 13:07:10
107,grand-bassam,5.2118,-3.7388,85.96400000000003,81,100,4.01,CI,2023-04-22 13:07:11
108,amga,60.8953,131.9608,6.872000000000035,100,74,1.07,RU,2023-04-22 13:07:11
109,kununurra,-15.7667,128.7333,82.38200000000002,36,0,6.17,AU,2023-04-22 13:07:11
110,toliara,-23.35,43.6667,73.49000000000002,85,52,3.53,MG,2023-04-22 13:07:11
111,severo-yeniseyskiy,60.3725,93.0408,16.628000000000064,96,82,1.74,RU,2023-04-22 13:07:12
112,iqaluit,63.7506,-68.5145,31.73000000000004,93,100,5.66,CA,2023-04-22 13:06:24
113,griffith,41.5284,-87.4237,44.312000000000054,69,100,8.23,US,2023-04-22 13:07:12
114,bredasdorp,-34.5322,20.0403,57.61400000000003,77,100,2.54,ZA,2023-04-22 13:07:13
115,sao miguel do araguaia,-13.275,-50.1628,84.21800000000009,67,71,1.79,BR,2023-04-22 13:07:13
116,chonchi,-42.6128,-73.8092,63.12200000000004,58,11,0.31,CL,2023-04-22 13:07:14
117,georgetown,5.4112,100.3354,82.32800000000006,83,20,0.0,MY,2023-04-22 13:06:41
118,moirang,24.5,93.7667,69.15200000000007,61,99,1.45,IN,2023-04-22 13:07:14
119,hithadhoo,-0.6,73.0833,83.78600000000007,72,55,0.76,MV,2023-04-22 13:06:44
120,kapa'a,22.0752,-159.319,76.1,90,75,2.68,US,2023-04-22 13:07:15
121,schongau,47.8167,10.9,64.958,42,96,3.6,DE,2023-04-22 13:07:15
122,norrtalje,59.758,18.705,59.18000000000004,62,15,3.6,SE,2023-04-22 13:07:15
123,bairnsdale,-37.8333,147.6167,58.04600000000005,89,97,1.84,AU,2023-04-22 13:07:16
124,beyneu,45.3167,55.2,64.292,43,40,5.86,KZ,2023-04-22 13:07:16
125,fort bragg,35.139,-79.006,72.5,79,75,3.09,US,2023-04-22 13:07:17
126,ketchikan,55.3422,-131.6461,46.38200000000002,81,100,5.66,US,2023-04-22 13:07:17
127,daru,-9.0763,143.2092,78.27800000000008,90,100,5.05,PG,2023-04-22 13:07:17
128,weno,7.4515,151.8468,80.54600000000005,89,75,0.0,FM,2023-04-22 13:07:18
129,lobujya,27.95,86.8167,3.812000000000058,50,73,1.78,NP,2023-04-22 13:07:18
130,sam roi yot,12.2708,99.872,80.42000000000007,80,8,2.97,TH,2023-04-22 13:07:18
131,robore,-18.3333,-59.75,87.458,41,0,1.62,BO,2023-04-22 13:07:18
132,mugia,43.1041,-9.2179,60.17000000000006,91,83,12.61,ES,2023-04-22 13:07:19
133,ribeira grande,38.5167,-28.7,64.79600000000005,88,75,6.69,PT,2023-04-22 13:07:19
134,kaa-khem,51.6833,94.7333,30.59600000000005,47,64,2.16,RU,2023-04-22 13:07:19
135,saidpur,25.7777,88.8917,81.28399999999999,43,88,2.71,BD,2023-04-22 13:07:19
136,coquimbo,-29.9533,-71.3436,60.530000000000044,82,100,4.12,CL,2023-04-22 13:07:20
137,bishkul,54.7803,69.1033,48.29000000000002,74,100,4.19,KZ,2023-04-22 13:07:20
138,condoto,5.0935,-76.6497,89.13200000000002,57,85,1.39,CO,2023-04-22 13:07:21
139,adrar,20.5022,-10.0711,86.0,16,48,4.87,MR,2023-04-22 13:07:21
140,poronaysk,49.2167,143.1167,29.930000000000042,77,24,3.66,RU,2023-04-22 13:07:21
141,invercargill,-46.4,168.35,53.024000000000015,82,84,0.89,NZ,2023-04-22 13:07:19
142,richards bay,-28.783,32.0377,70.05200000000008,91,94,2.27,ZA,2023-04-22 13:07:22
143,pitkyaranta,61.5734,31.4792,35.88800000000005,100,100,1.48,RU,2023-04-22 13:07:22
144,palikir - national government center,6.9248,158.1611,75.93800000000005,88,75,0.0,FM,2023-04-22 13:07:22
145,odienne,9.51,-7.5692,95.88200000000002,25,73,0.5,CI,2023-04-22 13:07:23
146,huarmey,-10.0681,-78.1522,81.57200000000003,69,23,4.62,PE,2023-04-22 13:07:23
147,nagqu,31.5,92.0,32.648000000000025,48,100,7.34,CN,2023-04-22 13:07:24
148,college,64.8569,-147.8028,25.591999999999995,57,75,10.8,US,2023-04-22 13:06:32
149,mount gambier,-37.8333,140.7667,54.30200000000008,92,76,0.73,AU,2023-04-22 13:07:24
150,ancud,-41.8697,-73.8203,56.84000000000002,66,1,2.33,CL,2023-04-22 13:07:24
151,sarmiento,-45.5882,-69.07,64.67000000000007,22,4,8.94,AR,2023-04-22 13:07:25
152,east london,-33.0153,27.9116,65.33600000000007,55,0,3.09,ZA,2023-04-22 13:06:36
153,ghanzi,-21.5667,21.7833,73.68800000000005,31,100,1.31,BW,2023-04-22 13:07:25
154,tobelo,1.7284,128.0095,79.23200000000003,83,42,1.45,ID,2023-04-22 13:07:25
155,walvis bay,-22.9575,14.5053,60.09800000000003,65,100,5.13,NA,2023-04-22 13:06:41
156,aljezur,37.3191,-8.8033,62.52800000000006,62,12,4.78,PT,2023-04-22 13:07:27
157,korla,41.7597,86.1469,57.00200000000008,33,95,4.8,CN,2023-04-22 13:07:27
158,francistown,-21.17,27.5079,77.82800000000006,31,83,2.6,BW,2023-04-22 13:07:27
159,chukhloma,58.7525,42.6825,45.21200000000006,67,66,1.96,RU,2023-04-22 13:07:28
160,puerto baquerizo moreno,-0.9,-89.6,81.59000000000003,83,40,4.12,EC,2023-04-22 13:07:24
161,punta arenas,-53.15,-70.9167,55.50800000000001,54,0,14.92,CL,2023-04-22 13:07:18
162,vanino,49.0869,140.2543,31.568000000000087,95,100,0.34,RU,2023-04-22 13:07:29
163,santa ana,33.7456,-117.8678,88.86200000000005,38,40,4.63,US,2023-04-22 13:03:54
164,pathein,16.7833,94.7333,81.48200000000003,80,2,2.84,MM,2023-04-22 13:07:29
165,zeya,53.75,127.2667,29.191999999999997,86,100,2.15,RU,2023-04-22 13:07:29
166,sinop,41.7711,34.8709,45.23000000000004,87,66,1.08,TR,2023-04-22 13:04:31
167,hasaki,35.7333,140.8333,48.21800000000009,55,86,6.45,JP,2023-04-22 13:07:30
168,aasiaat,68.7098,-52.8699,32.108000000000004,88,100,2.08,GL,2023-04-22 13:07:31
169,bardai,11.65,7.2333,90.62600000000009,24,66,2.58,NG,2023-04-22 13:07:31
170,longyearbyen,78.2186,15.6401,8.438000000000045,66,20,4.12,SJ,2023-04-22 13:07:31
171,ust-tsilma,65.441,52.1498,33.54800000000002,99,100,3.12,RU,2023-04-22 13:07:32
172,palangkaraya,-2.2,113.8333,75.16400000000004,97,100,1.05,ID,2023-04-22 13:07:32
173,korhogo,9.45,-5.6333,97.016,23,38,1.55,CI,2023-04-22 13:07:33
174,kizhinga,51.8462,109.9097,20.57000000000006,49,35,0.98,RU,2023-04-22 13:07:33
175,bonny,4.4522,7.1681,82.61600000000001,77,56,5.12,NG,2023-04-22 13:07:33
176,srikakulam,18.3,83.9,82.88600000000008,66,44,2.49,IN,2023-04-22 13:07:33
177,balkanabat,39.5108,54.3671,76.06400000000004,37,94,1.95,TM,2023-04-22 13:07:34
178,vilyuchinsk,52.9306,158.4028,30.218000000000085,96,100,2.78,RU,2023-04-22 13:07:34
179,sanctuary point,-35.1114,150.629,63.75200000000008,94,20,2.58,AU,2023-04-22 13:07:34
180,madalena,41.2162,-8.3345,63.464000000000034,67,7,4.41,PT,2023-04-22 13:07:35
181,west island,-12.1568,96.8225,80.58200000000002,89,100,5.66,CC,2023-04-22 13:07:34
182,mokolo,10.7398,13.8019,94.6760000000001,17,73,1.77,CM,2023-04-22 13:07:35
183,newman,37.3138,-121.0208,75.05600000000004,43,85,5.81,US,2023-04-22 13:07:35
184,lompoc,34.6391,-120.4579,78.78200000000001,71,81,8.05,US,2023-04-22 13:07:23
185,sao vicente,-23.9631,-46.3919,80.78000000000004,67,0,2.33,BR,2023-04-22 13:07:36
186,maumere,-8.6199,122.2111,77.73800000000006,79,84,0.31,ID,2023-04-22 13:07:36
187,nova sintra,14.8667,-24.7167,68.64800000000002,75,8,7.34,CV,2023-04-22 13:07:15
188,bam,29.106,58.357,81.19400000000007,17,69,2.39,IR,2023-04-22 13:07:36
189,ust-nera,64.5667,143.2,11.33600000000007,99,96,2.24,RU,2023-04-22 13:07:37
190,dunedin,-45.8742,170.5036,52.80800000000001,10,27,2.77,NZ,2023-04-22 13:07:37
191,port alfred,-33.5906,26.891,60.188000000000045,68,100,0.45,ZA,2023-04-22 13:07:22
192,pangody,65.85,74.4859,31.946000000000048,99,100,2.25,RU,2023-04-22 13:07:37
193,fort st. john,56.2499,-120.8529,44.978000000000065,53,100,2.56,CA,2023-04-22 13:07:38
194,yeniseysk,58.4497,92.1703,27.95,98,85,1.22,RU,2023-04-22 13:07:38
195,arti,56.4234,58.5328,43.214000000000034,93,100,3.33,RU,2023-04-22 13:07:38
196,izamal,20.9333,-89.0167,103.766,27,6,0.59,MX,2023-04-22 13:07:38
197,lutjenburg,54.2919,10.5895,67.82000000000006,77,94,6.09,DE,2023-04-22 13:07:38
198,tolanaro,-25.0319,46.9987,71.54600000000005,88,36,1.52,MG,2023-04-22 13:07:39
199,broken hill,-31.95,141.4333,58.53200000000002,58,0,4.2,AU,2023-04-22 13:07:39
200,kolonia,50.9333,6.95,59.95400000000005,82,20,5.14,DE,2023-04-22 13:07:39
201,utrik,11.2278,169.8474,80.61800000000008,77,80,8.85,MH,2023-04-22 13:07:39
202,mariental,-24.6333,17.9667,75.92000000000007,29,100,2.0,NA,2023-04-22 13:07:40
203,olonkinbyen,70.9221,-8.7187,26.09600000000005,60,40,5.62,SJ,2023-04-22 13:07:20
204,yarmouth,41.7057,-70.2286,57.95600000000003,77,100,5.66,US,2023-04-22 13:07:17
205,pisco,-13.7,-76.2167,82.45400000000006,61,13,10.29,PE,2023-04-22 13:04:41
206,devils lake,48.1128,-98.8651,35.708000000000006,60,0,7.2,US,2023-04-22 13:07:40
207,castillos,-34.1667,-53.8333,74.13800000000005,43,69,1.46,UY,2023-04-22 13:07:41
208,port macquarie,-31.4333,152.9167,59.900000000000006,79,65,2.81,AU,2023-04-22 13:07:41
209,isafjordur,66.0755,-23.124,35.708000000000006,59,11,2.87,IS,2023-04-22 13:07:28
210,jianshui,23.6363,102.8264,68.27000000000007,45,8,2.32,CN,2023-04-22 13:07:41
211,isangel,-19.55,169.2667,78.18800000000005,81,31,3.79,VU,2023-04-22 13:07:41
212,timaru,-44.4,171.25,51.08000000000004,97,3,2.24,NZ,2023-04-22 13:07:42
213,dover,39.1582,-75.5244,78.09800000000003,51,40,6.69,US,2023-04-22 13:07:17
214,nemuro,43.3236,145.575,37.022000000000034,75,12,6.72,JP,2023-04-22 13:07:42
215,tarko-sale,64.9225,77.785,34.34000000000002,98,100,7.02,RU,2023-04-22 13:07:42
216,vorkuta,67.5,64.0,26.906000000000027,96,98,5.14,RU,2023-04-22 13:07:43
217,zharkent,44.1628,80.0,48.596000000000046,22,1,2.88,KZ,2023-04-22 13:07:43
218,geraldton,-28.7667,114.6,64.81400000000004,42,11,5.14,AU,2023-04-22 13:07:26
219,irbit,57.6705,63.071,46.05800000000001,88,100,2.69,RU,2023-04-22 13:07:43
220,alice springs,-23.7,133.8833,51.35,76,0,2.57,AU,2023-04-22 13:03:50
221,bayanhongor,46.7167,100.1167,28.43600000000007,31,31,1.64,MN,2023-04-22 13:07:44
222,lebu,-37.6167,-73.65,59.0,74,1,6.94,CL,2023-04-22 13:07:23
223,anadyr,64.75,177.4833,9.104000000000052,84,100,0.0,RU,2023-04-22 13:07:44
224,celestun,20.8667,-90.4,84.83000000000004,63,25,3.9,MX,2023-04-22 13:07:44
225,ilulissat,69.2167,-51.1,32.018000000000086,74,75,1.03,GL,2023-04-22 13:07:45
226,guerrero negro,27.9769,-114.0611,72.78800000000004,42,0,5.59,MX,2023-04-22 13:07:45
227,siracusa,37.0881,15.2792,60.17000000000006,74,5,1.74,IT,2023-04-22 13:07:45
228,fale old settlement,-9.3852,-171.2468,83.82200000000003,75,55,4.7,TK,2023-04-22 13:07:36
229,sena madureira,-9.0656,-68.6569,91.67000000000007,48,90,0.3,BR,2023-04-22 13:07:46
230,jieshi,22.8134,115.8257,71.61800000000008,90,100,6.23,CN,2023-04-22 13:07:46
231,hobyo,5.3505,48.5268,83.642,75,97,5.52,SO,2023-04-22 13:07:47
232,vila franca do campo,37.7167,-25.4333,63.01400000000004,89,52,6.41,PT,2023-04-22 13:07:47
233,hit,33.6416,42.8251,78.20600000000003,23,96,2.92,IQ,2023-04-22 13:07:47
234,formosa,-26.1775,-58.1781,84.18200000000002,42,20,1.03,AR,2023-04-22 13:07:47
235,pamanukan,-6.2842,107.8106,78.65600000000003,88,28,2.31,ID,2023-04-22 13:07:48
236,zambezi,-13.5432,23.1047,71.00600000000003,77,91,0.88,ZM,2023-04-22 13:07:48
237,manzhouli,49.6,117.4333,26.78000000000004,25,8,1.25,CN,2023-04-22 13:07:48
238,kerikeri,-35.2268,173.9474,62.906000000000034,96,87,0.89,NZ,2023-04-22 13:07:31
239,morehead city,34.7229,-76.726,77.03600000000007,75,0,6.71,US,2023-04-22 13:07:49
240,the pas,53.8251,-101.2541,38.87600000000009,46,36,3.69,CA,2023-04-22 13:07:49
241,san ignacio de velasco,-16.3667,-60.95,83.60600000000002,59,6,1.46,BO,2023-04-22 13:07:49
242,afaahiti,-17.75,-149.2833,78.674,80,100,5.77,PF,2023-04-22 13:07:39
243,cam ranh,11.9214,109.1591,82.36400000000003,78,40,2.06,VN,2023-04-22 13:07:49
244,harper,4.375,-7.7169,83.69600000000005,76,25,5.12,LR,2023-04-22 13:07:50
245,santa vitoria,-18.8386,-50.1214,75.63200000000002,79,88,2.48,BR,2023-04-22 13:05:54
246,las heras,-46.5419,-68.9359,63.30200000000008,18,5,12.75,AR,2023-04-22 13:07:50
247,yima,34.7381,111.8839,34.32200000000004,99,100,1.4,CN,2023-04-22 13:07:50
248,otofuke,42.9917,143.2003,36.48200000000001,68,1,3.82,JP,2023-04-22 13:07:51
249,happy valley-goose bay,53.3168,-60.3315,39.50600000000003,81,75,4.63,CA,2023-04-22 13:04:38
250,palmer,42.1584,-72.3287,65.2100000000001,51,100,5.84,US,2023-04-22 13:07:51
251,la paz,-16.5,-68.15,67.5680000000001,19,2,2.24,BO,2023-04-22 13:07:52
252,howard springs,-12.497,131.047,78.7100000000001,87,34,3.25,AU,2023-04-22 13:07:52
253,jamestown,42.097,-79.2353,47.01200000000006,97,100,7.2,US,2023-04-22 13:07:49
254,kulhudhuffushi,6.6221,73.07,85.04600000000005,73,100,3.51,MV,2023-04-22 13:07:52
255,inarajan village,13.2736,144.7484,81.57200000000003,91,91,8.15,GU,2023-04-22 13:07:53
256,petropavlovsk-kamchatsky,53.0452,158.6483,30.32600000000009,97,100,3.39,RU,2023-04-22 13:07:53
257,flin flon,54.7682,-101.865,36.44600000000005,57,48,3.79,CA,2023-04-22 13:06:44
258,cape town,-33.9258,18.4232,59.108000000000004,89,100,10.29,ZA,2023-04-22 12:56:32
259,timimoun,29.2639,0.231,88.53800000000004,14,1,5.52,DZ,2023-04-22 13:07:54
260,oranjemund,-28.55,16.4333,56.102000000000075,63,95,2.01,NA,2023-04-22 13:07:54
261,lohardaga,23.4333,84.6833,75.16400000000004,40,100,3.07,IN,2023-04-22 13:07:54
262,lamu,-2.2717,40.902,77.21600000000001,87,100,4.21,KE,2023-04-22 13:07:54
263,tadjourah,12.0,42.5,80.78000000000004,60,100,6.74,DJ,2023-04-22 13:07:55
264,san patricio,28.017,-97.5169,81.15800000000002,57,3,6.4,US,2023-04-22 13:07:46
265,pont rouge,48.8833,-72.0825,52.88000000000004,65,97,6.99,CA,2023-04-22 13:07:55
266,dzhankoy,45.7167,34.4,48.182000000000016,76,99,2.18,UA,2023-04-22 13:07:56
267,mili,6.0815,171.735,81.59000000000003,81,39,7.28,MH,2023-04-22 13:07:56
268,bamboo flat,11.7,92.7167,82.16600000000001,73,0,1.96,IN,2023-04-22 13:04:16
269,ordynskoye,54.3656,81.8994,37.202000000000076,62,66,3.54,RU,2023-04-22 13:07:56
270,reggane,26.7158,0.1714,91.61600000000001,12,0,4.0,DZ,2023-04-22 13:07:57
271,papao,-17.75,-149.55,80.2760000000001,87,100,5.36,PF,2023-04-22 13:07:57
272,sao tome,0.3365,6.7273,82.14800000000002,79,36,2.99,ST,2023-04-22 13:07:57
273,maraba,-5.3686,-49.1178,91.58000000000004,62,20,1.54,BR,2023-04-22 13:06:16
274,talnakh,69.4865,88.3972,27.662000000000056,95,100,5.4,RU,2023-04-22 13:07:39
275,nar'yan-mar,67.6713,53.087,32.97200000000004,98,100,7.14,RU,2023-04-22 13:07:58
276,trairi,-3.2778,-39.2689,84.25400000000005,66,12,5.34,BR,2023-04-22 13:07:03
277,tura,25.5198,90.2201,73.59800000000003,60,33,2.33,IN,2023-04-22 13:07:34
278,miri,4.4148,114.0089,80.2760000000001,83,93,2.3,MY,2023-04-22 13:07:59
279,al bayda',32.7627,21.7551,65.62400000000002,41,84,8.52,LY,2023-04-22 13:07:59
280,mar del plata,-38.0023,-57.5575,58.820000000000064,75,22,0.89,AR,2023-04-22 13:07:43
281,sotouboua,8.5667,0.9833,83.66000000000008,63,67,1.57,TG,2023-04-22 13:07:59
282,dakhla,23.6848,-15.958,68.05400000000006,81,0,7.81,EH,2023-04-22 13:08:00
283,dhahran,26.3032,50.1353,79.84400000000008,44,0,1.54,SA,2023-04-22 13:08:00
284,saint-philippe,-21.3585,55.7679,78.38600000000008,76,64,3.18,RE,2023-04-22 13:08:00
285,island harbour,50.724,-1.2758,54.158,85,72,4.47,GB,2023-04-22 13:07:27
286,la passe,45.5549,-0.8967,62.83399999999999,81,51,3.88,FR,2023-04-22 13:08:01
287,tsiombe,-25.3,45.4833,69.63800000000005,91,13,1.06,MG,2023-04-22 13:08:01
288,andalgala,-27.5819,-66.3165,68.91800000000009,68,67,1.45,AR,2023-04-22 13:08:02
289,mikun',62.3547,50.0771,41.19800000000002,80,100,4.43,RU,2023-04-22 13:08:02
290,machilipatnam,16.1667,81.1333,81.12200000000004,74,61,2.71,IN,2023-04-22 13:08:03
291,qamdo,31.1667,97.2333,34.32200000000004,40,41,2.79,CN,2023-04-22 13:07:41
292,nova vicosa,-17.8919,-39.3719,78.15200000000007,79,92,6.26,BR,2023-04-22 13:08:03
293,nishinoomote,30.7333,131.0,65.49800000000002,63,75,9.39,JP,2023-04-22 13:08:03
294,ayame,5.6083,-3.1563,80.9600000000001,81,99,3.12,CI,2023-04-22 13:08:04
295,tazacorte,28.629,-17.9293,70.77200000000005,82,75,2.57,ES,2023-04-22 13:08:04
296,chengde,40.9725,117.9361,48.434,34,98,1.23,CN,2023-04-22 13:08:04
297,hastings,50.8552,0.5729,55.79600000000005,28,81,3.25,GB,2023-04-22 13:08:04
298,turpan,42.9333,89.1667,66.41600000000001,25,100,6.31,CN,2023-04-22 13:08:04
299,mata-utu,-13.2816,-176.1745,82.5260000000001,75,97,4.98,WF,2023-04-22 13:08:05
300,quartu sant'elena,39.2419,9.1839,64.058,74,0,4.12,IT,2023-04-22 13:06:30
301,tazovsky,67.4667,78.7,31.406000000000027,99,100,3.2,RU,2023-04-22 13:07:19
302,tete,-16.1564,33.5867,82.49000000000002,65,20,3.09,MZ,2023-04-22 13:08:06
303,praia da vitoria,38.7333,-27.0667,63.66200000000006,89,20,10.62,PT,2023-04-22 13:08:04
304,kapuskasing,49.4169,-82.4331,39.65,90,100,3.25,CA,2023-04-22 13:08:07
305,porto cristo,39.5395,3.333,67.316,80,100,3.59,ES,2023-04-22 13:08:07
306,tukrah,32.5341,20.5791,68.9,58,58,3.67,LY,2023-04-22 13:08:07
307,qui nhon,13.7667,109.2333,78.78200000000001,94,89,4.43,VN,2023-04-22 13:07:51
308,goondiwindi,-28.55,150.3167,56.93000000000004,73,0,3.21,AU,2023-04-22 13:08:08
309,port hedland,-20.3167,118.5667,75.25400000000005,60,100,3.09,AU,2023-04-22 13:08:08
310,glasgow,55.8652,-4.2576,53.150000000000006,77,40,5.14,GB,2023-04-22 13:06:59
311,merizo village,13.2658,144.6691,81.15800000000002,91,82,6.76,GU,2023-04-22 13:08:09
312,san antonio de pale,-1.4014,5.6325,82.76000000000008,74,85,4.3,GQ,2023-04-22 13:08:09
313,blackwater,-23.5833,148.8833,64.88600000000008,67,29,4.8,AU,2023-04-22 13:08:09
314,wynyard,-41.0,145.7167,56.983999999999995,76,57,3.15,AU,2023-04-22 13:07:35
315,tamanrasset,22.785,5.5228,84.11000000000008,9,0,6.17,DZ,2023-04-22 13:03:19
316,kenai,60.5544,-151.2583,41.14400000000008,63,40,2.06,US,2023-04-22 13:08:10
317,alofi,-19.0595,-169.9187,77.108,66,0,4.38,NU,2023-04-22 13:08:10
318,birjand,32.8663,59.2211,71.78000000000004,15,42,4.44,IR,2023-04-22 13:08:11
319,melekeok village,7.4957,134.6367,81.35600000000002,78,94,3.15,PW,2023-04-22 13:08:11
320,ponta delgada,37.7333,-25.6667,63.320000000000064,94,75,4.63,PT,2023-04-22 13:07:22
321,anatuya,-28.4606,-62.8347,71.07800000000006,46,100,2.57,AR,2023-04-22 13:08:11
322,colon,9.3592,-79.9014,85.24400000000009,59,30,3.86,PA,2023-04-22 13:08:12
323,mosjoen,65.836,13.1908,36.662000000000056,48,90,4.63,NO,2023-04-22 13:08:12
324,beihai,21.4833,109.1,78.0260000000001,90,15,6.42,CN,2023-04-22 13:08:12
325,trinity beach,-16.7888,145.6968,77.01800000000009,93,75,6.69,AU,2023-04-22 13:08:12
326,fraserburgh,57.6874,-2.0184,46.43600000000007,91,34,5.34,GB,2023-04-22 13:08:13
327,medina,24.4686,39.6142,91.83200000000002,14,20,5.66,SA,2023-04-22 13:07:43
328,chernigovka,44.3389,132.5728,36.42800000000007,38,17,3.78,RU,2023-04-22 13:08:13
329,kayalpattinam,8.5667,78.1167,85.94600000000005,71,45,2.5,IN,2023-04-22 13:08:14
330,tindouf,27.6711,-8.1474,87.26000000000008,8,91,0.44,DZ,2023-04-22 13:08:14
331,mount pearl,47.5166,-52.7813,37.85,97,100,10.8,CA,2023-04-22 13:06:18
332,palasa,18.7667,84.4167,80.16800000000009,80,27,2.13,IN,2023-04-22 13:08:14
333,lorengau,-2.0226,147.2712,80.94200000000001,79,100,1.54,PG,2023-04-22 13:07:42
334,khandyga,62.6667,135.6,14.954000000000054,100,84,1.63,RU,2023-04-22 13:07:30
335,cu chi,10.9667,106.4667,84.21800000000009,76,67,3.45,VN,2023-04-22 13:08:15
336,vila velha,-20.3297,-40.2925,78.74600000000005,79,75,3.6,BR,2023-04-22 13:08:16
337,san julian,21.0167,-102.1667,81.95,13,100,3.14,MX,2023-04-22 13:08:16
338,yaizu,34.8667,138.3333,55.85,85,98,2.29,JP,2023-04-22 13:06:16
339,berezovyy,51.6667,135.7,30.90200000000008,94,100,1.48,RU,2023-04-22 13:08:16
340,sitia,35.2,26.0986,64.97600000000008,80,42,1.03,GR,2023-04-22 13:08:17
341,m'sila,35.7058,4.5419,67.892,55,99,11.66,DZ,2023-04-22 13:08:17
342,posto fiscal rolim de moura,-13.0833,-62.2667,87.54800000000003,56,75,1.94,BR,2023-04-22 13:08:17
343,kailua-kona,19.6406,-155.9956,80.51000000000008,81,40,5.14,US,2023-04-22 13:07:48
344,ta`u,-14.2336,-169.5144,80.63600000000008,79,62,5.16,AS,2023-04-22 13:07:05
345,piton saint-leu,-21.2196,55.3151,75.308,73,20,2.57,RE,2023-04-22 13:08:18
346,nkowakowa,-23.8878,30.2871,69.7100000000001,60,5,1.48,ZA,2023-04-22 13:08:19
347,keflavik,64.0049,-22.5624,41.432000000000016,93,100,3.6,IS,2023-04-22 13:07:35
348,kushikino,31.7167,130.2667,57.47000000000006,70,55,2.19,JP,2023-04-22 13:08:19
349,prince albert,53.2001,-105.7677,39.47000000000006,54,100,2.22,CA,2023-04-22 13:08:20
350,solwezi,-12.1688,26.3894,66.16400000000004,87,80,1.79,ZM,2023-04-22 13:08:20
351,maturin,9.75,-63.1767,85.83800000000005,84,96,2.06,VE,2023-04-22 13:08:20
352,amungan,15.3652,119.9582,81.12200000000004,76,58,1.66,PH,2023-04-22 13:08:20
353,ipala,14.6167,-89.6167,95.14400000000008,25,39,1.49,GT,2023-04-22 13:08:21
354,bandarbeyla,9.4942,50.8122,82.81400000000004,70,68,5.14,SO,2023-04-22 13:08:21
355,arraial do cabo,-22.9661,-42.0278,78.65600000000003,69,40,5.14,BR,2023-04-22 13:08:20
356,margate,51.3813,1.3862,54.69800000000002,69,87,2.24,GB,2023-04-22 13:08:22
357,hampton bays,40.869,-72.5176,64.184,89,100,5.66,US,2023-04-22 13:08:22
358,fisterra,42.9049,-9.2629,60.026000000000096,89,74,12.07,ES,2023-04-22 13:08:16
359,broome,42.2506,-75.833,72.46400000000003,51,75,8.05,US,2023-04-22 13:06:15
360,shiwan,22.9969,113.0799,76.94600000000005,82,100,4.35,CN,2023-04-22 13:08:23
361,skovorodino,53.9833,123.9167,26.63600000000007,61,99,2.89,RU,2023-04-22 13:08:23
362,carnarvon,-24.8667,113.6333,73.63399999999999,57,0,5.36,AU,2023-04-22 13:07:56
363,ahfir,34.9537,-2.1003,72.21200000000006,56,76,1.94,MA,2023-04-22 13:08:24
364,kirensk,57.7853,108.1119,19.148000000000025,99,99,0.87,RU,2023-04-22 13:08:24
365,uvinza,-5.1036,30.3911,67.87400000000002,96,100,1.07,TZ,2023-04-22 13:08:24
366,samarinda,-0.5,117.15,74.37200000000004,98,82,0.08,ID,2023-04-22 13:08:25
367,puerto colombia,10.9878,-74.9547,87.89000000000001,78,70,4.92,CO,2023-04-22 13:08:25
368,hadibu,12.65,54.0333,83.46200000000006,72,11,2.77,YE,2023-04-22 13:06:54
369,iwon-up,40.3231,128.6553,44.42000000000006,54,10,2.48,KP,2023-04-22 13:08:25
370,port washington,40.8257,-73.6982,69.584,72,100,3.58,US,2023-04-22 13:08:26
371,jinzhou,41.1078,121.1417,49.49600000000005,18,62,3.28,CN,2023-04-22 13:08:26
372,hakui,36.8833,136.7833,44.258,69,90,2.9,JP,2023-04-22 13:08:26
373,ust'-kut,56.7938,105.7672,26.924000000000014,97,100,1.19,RU,2023-04-22 13:07:48
374,tughyl,47.7252,84.2063,38.94800000000002,67,18,3.7,KZ,2023-04-22 13:08:27
375,mawu,29.5923,107.3139,60.42200000000004,95,100,0.86,CN,2023-04-22 13:08:27
376,kralendijk,12.15,-68.2667,79.68200000000002,82,94,3.45,BQ,2023-04-22 13:08:27
377,darwin,-12.4611,130.8418,78.78200000000001,76,31,1.54,AU,2023-04-22 13:07:06
378,mae tha,18.4646,99.1403,81.12200000000004,59,50,0.76,TH,2023-04-22 13:08:28
379,puerto armuelles,8.2833,-82.8667,83.858,69,98,4.16,PA,2023-04-22 13:08:28
380,rudbar,30.15,62.6,80.708,10,1,1.53,AF,2023-04-22 13:08:29
381,mermoz boabab,14.7065,-17.4758,69.06200000000007,84,39,7.71,SN,2023-04-22 13:08:29
382,rikaze,29.25,88.8833,41.504000000000055,30,90,2.19,CN,2023-04-22 13:08:30
383,altai,46.3722,96.2583,34.23200000000001,25,97,1.05,MN,2023-04-22 13:08:30
384,oriximina,-1.7656,-55.8661,79.43000000000004,89,100,0.43,BR,2023-04-22 13:08:30
385,liuli,-11.0833,34.6333,75.83000000000004,84,100,2.67,TZ,2023-04-22 13:08:30
386,menongue,-14.6585,17.691,66.61400000000003,75,94,1.32,AO,2023-04-22 13:08:31
387,tagta,41.6504,59.9164,75.14600000000004,23,0,2.06,TM,2023-04-22 13:08:31
388,xilin hot,43.9667,116.0333,34.628000000000064,21,68,4.08,CN,2023-04-22 13:08:31
389,tucuma,-0.1833,-50.05,86.75600000000003,63,97,2.98,BR,2023-04-22 13:04:00
390,egilsstadir,65.2653,-14.3948,31.910000000000082,64,75,6.17,IS,2023-04-22 13:04:58
391,saldanha,-33.0117,17.9442,59.522000000000034,87,100,8.71,ZA,2023-04-22 13:07:43
392,funafuti,-8.5243,179.1942,80.6,89,40,0.0,TV,2023-04-22 13:08:32
393,puerto aysen,-45.4,-72.7,56.33600000000007,77,87,2.08,CL,2023-04-22 13:07:32
394,hinthada,17.6333,95.4667,84.12800000000007,73,2,3.88,MM,2023-04-22 13:08:33
395,new norfolk,-42.7826,147.0587,54.91400000000003,65,51,0.45,AU,2023-04-22 13:07:35
396,manado,1.487,124.8455,75.97400000000002,94,40,0.51,ID,2023-04-22 13:08:33
397,madimba,-10.4,40.3333,77.792,90,98,3.76,TZ,2023-04-22 13:08:34
398,brisas de zicatela,15.8369,-97.0419,86.52200000000005,70,20,3.09,MX,2023-04-22 13:08:08
399,aioun,16.6614,-9.6149,94.35200000000009,11,92,4.45,MR,2023-04-22 13:08:34
400,kuta,-8.7233,115.1723,80.54600000000005,94,20,2.68,ID,2023-04-22 13:08:34
401,hami,42.8,93.45,59.99000000000002,11,81,2.57,CN,2023-04-22 13:08:02
402,prince rupert,54.3161,-130.3201,43.556000000000026,90,100,4.34,CA,2023-04-22 13:07:06
403,bengkulu,-3.8004,102.2655,76.892,89,94,1.71,ID,2023-04-22 13:08:35
404,laguna,38.421,-121.4238,77.28800000000004,45,0,6.17,US,2023-04-22 13:07:52
405,lib,8.3122,167.3766,81.95,79,99,8.92,MH,2023-04-22 13:08:36
406,colares,38.7992,-9.4469,67.334,66,20,7.6,PT,2023-04-22 13:08:36
407,vilyuysk,63.7553,121.6247,6.908000000000005,98,26,1.92,RU,2023-04-22 13:07:40
408,jutai,-5.1833,-68.9,78.85400000000006,82,100,1.14,BR,2023-04-22 13:08:36
409,ulanhot,46.0833,122.0833,33.044000000000075,18,32,3.14,CN,2023-04-22 13:08:37
410,touros,-5.1989,-35.4608,84.308,63,17,7.56,BR,2023-04-22 13:07:19
411,acajutla,13.5928,-89.8275,86.95400000000006,63,8,4.33,SV,2023-04-22 13:08:37
412,kavaratti,10.5669,72.642,84.05600000000004,71,88,5.56,IN,2023-04-22 13:08:37
413,crane,31.3974,-102.3501,78.85400000000006,11,0,2.93,US,2023-04-22 13:07:50
414,chibougamau,49.9168,-74.3659,40.622000000000035,87,100,3.09,CA,2023-04-22 13:07:45
415,katsuren-haebaru,26.3369,127.8719,71.61800000000008,78,75,3.09,JP,2023-04-22 13:08:38
416,dhoraji,21.7333,70.45,82.59800000000003,51,15,4.86,IN,2023-04-22 13:08:38
417,thunder bay,48.4001,-89.3168,26.510000000000083,80,100,5.14,CA,2023-04-22 13:06:48
418,tofol,5.3248,163.0078,82.14800000000002,79,95,5.74,FM,2023-04-22 13:08:39
419,jawhar,2.7809,45.5005,82.04000000000002,75,100,4.33,SO,2023-04-22 13:08:40
420,white rock,49.0164,-122.8026,53.00600000000003,75,100,0.89,CA,2023-04-22 13:08:40
421,andovoranto,-18.95,49.1,77.45,88,62,2.37,MG,2023-04-22 13:08:40
422,mao,39.8885,4.2658,63.158,88,75,2.57,ES,2023-04-22 13:08:40
423,datong,40.0936,113.2914,49.67600000000009,51,95,1.72,CN,2023-04-22 13:08:41
424,vadso,70.0744,29.7487,25.682000000000016,74,100,7.72,NO,2023-04-22 13:08:00
425,peniche,39.3558,-9.3811,65.084,77,9,4.72,PT,2023-04-22 13:08:41
426,gadzhiyevo,69.2551,33.3362,20.75,72,85,8.04,RU,2023-04-22 13:07:39
427,arteche,12.2645,125.4048,78.72800000000007,88,79,2.15,PH,2023-04-22 13:08:41
428,viransehir,37.2353,39.7631,59.18000000000004,49,82,2.26,TR,2023-04-22 13:08:42
429,barcelos,41.5388,-8.6151,64.85,76,19,4.4,PT,2023-04-22 13:08:42
430,midvagur,62.0511,-7.1939,41.82800000000007,60,100,7.2,FO,2023-04-22 13:08:38
431,pandan,14.0453,124.1694,79.86200000000005,85,66,2.72,PH,2023-04-22 13:08:43
432,cabo san lucas,22.8909,-109.9124,91.61600000000001,42,20,2.06,MX,2023-04-22 13:03:26
433,sarupathar,26.1984,93.8094,68.28800000000004,84,75,0.09,IN,2023-04-22 13:08:43
434,sao joao da barra,-21.6403,-41.0511,75.29000000000002,64,70,2.91,BR,2023-04-22 13:08:44
435,novyy urengoy,66.0833,76.6333,31.964000000000034,99,100,3.48,RU,2023-04-22 13:08:44
436,boonville,38.9736,-92.7432,43.592,54,100,4.63,US,2023-04-22 13:08:44
437,chandler,33.3062,-111.8412,88.07000000000006,15,0,2.57,US,2023-04-22 13:06:32
438,timmins,48.4669,-81.3331,40.820000000000064,81,100,4.63,CA,2023-04-22 13:04:07
439,vernon,50.2581,-119.2691,53.76200000000006,45,100,1.09,CA,2023-04-22 13:06:42
440,ujae,8.9322,165.7642,81.86000000000008,77,80,8.33,MH,2023-04-22 13:08:45
441,pointe michel,15.25,-61.3833,79.57400000000001,78,10,3.9,DM,2023-04-22 13:08:46
442,kiunga,-6.1219,141.2906,73.54400000000007,100,100,0.71,PG,2023-04-22 13:08:46
443,liuhe,42.2401,125.7172,35.51000000000008,25,17,0.94,CN,2023-04-22 13:08:46
444,mazagao,-0.115,-51.2894,87.85400000000006,66,100,2.52,BR,2023-04-22 13:08:46
445,sisimiut,66.9395,-53.6735,34.592,82,100,2.59,GL,2023-04-22 13:07:47
446,zhongxiang,31.1661,112.5831,43.610000000000085,90,100,7.19,CN,2023-04-22 13:08:47
447,jagna,9.6531,124.3697,79.592,87,38,4.3,PH,2023-04-22 13:08:47
448,aydarken,39.9443,71.3429,46.94000000000002,29,45,2.97,KG,2023-04-22 13:08:47
449,benguela,-12.5763,13.4055,80.07800000000006,78,48,3.02,AO,2023-04-22 13:08:47
450,malvan,16.0667,73.4667,80.9600000000001,73,11,5.87,IN,2023-04-22 13:08:48
451,kindu,-2.95,25.95,71.76200000000006,97,93,0.5,CD,2023-04-22 13:08:48
452,faranah,10.0404,-10.7434,94.49600000000005,21,76,1.21,GN,2023-04-22 13:08:48
453,strezhevoy,60.7333,77.5889,35.79800000000002,99,100,3.73,RU,2023-04-22 13:08:21
454,ghat,24.9647,10.1728,86.45,10,4,6.69,LY,2023-04-22 13:08:24
455,mohr,54.3528,9.7167,69.89000000000001,44,99,3.6,DE,2023-04-22 13:08:49
456,novodvinsk,64.4165,40.8122,31.748000000000026,96,100,3.32,RU,2023-04-22 13:08:25
457,pasuquin,18.3328,120.6177,78.74600000000005,83,40,0.51,PH,2023-04-22 13:08:49
458,amahai,-3.3333,128.9167,78.40400000000005,86,74,1.44,ID,2023-04-22 13:08:13
459,gasa,31.5,34.4667,61.88000000000004,72,4,4.74,PS,2023-04-22 13:07:41
460,umm kaddadah,13.6017,26.6876,87.47600000000008,9,0,1.73,SD,2023-04-22 13:08:50
461,el granada,37.5027,-122.4694,76.4600000000001,73,20,5.66,US,2023-04-22 13:08:50
462,peterhead,57.5058,-1.7981,46.79600000000005,90,71,4.69,GB,2023-04-22 13:08:50
463,narvik,68.4384,17.4272,29.60600000000003,87,100,2.71,NO,2023-04-22 13:06:52
464,xam nua,20.4197,104.0439,66.84800000000003,77,21,1.3,LA,2023-04-22 13:08:51
465,taro,-8.3862,115.28,73.4,93,41,0.54,ID,2023-04-22 13:08:51
466,hamilton,39.1834,-84.5333,59.25200000000008,48,40,8.75,US,2023-04-22 13:05:30
467,sake,-1.5736,29.045,64.5260000000001,94,100,0.35,CD,2023-04-22 13:08:52
468,zhanaozen,43.3,52.8,65.82200000000003,36,42,6.16,KZ,2023-04-22 13:08:52
469,cheremukhovo,60.3484,59.9851,36.08600000000007,84,15,1.41,RU,2023-04-22 13:08:52
470,gandia,38.9667,-0.1833,71.74400000000009,54,82,0.45,ES,2023-04-22 13:08:53
471,ishigaki,24.3448,124.1572,68.12600000000009,88,7,2.06,JP,2023-04-22 13:06:14
472,caleta de carquin,-11.0925,-77.6267,80.47400000000002,68,33,6.06,PE,2023-04-22 13:08:46
473,labytnangi,66.6572,66.4183,28.18399999999999,94,98,1.11,RU,2023-04-22 13:08:53
474,anshun,26.25,105.9333,67.13600000000008,86,84,3.76,CN,2023-04-22 13:08:53
475,lensk,60.7253,114.9278,19.472000000000037,94,40,0.64,RU,2023-04-22 13:08:54
476,zakamensk,50.3741,103.2863,20.660000000000082,65,21,0.5,RU,2023-04-22 13:08:54
477,norilsk,69.3535,88.2027,34.43000000000004,95,100,4.3,RU,2023-04-22 13:08:54
478,patterson,37.4716,-121.1297,75.02000000000007,43,68,5.5,US,2023-04-22 13:08:55
479,remire-montjoly,4.9167,-52.2667,75.23600000000008,100,100,1.03,GF,2023-04-22 13:07:33
480,beira,-19.8436,34.8389,75.29000000000002,94,0,1.54,MZ,2023-04-22 13:08:39
481,tlahualilo de zaragoza,26.1167,-103.45,84.48800000000006,26,93,4.61,MX,2023-04-22 13:08:55
482,takoradi,4.8845,-1.7554,83.55200000000008,75,78,5.84,GH,2023-04-22 13:08:56
483,shimoda,34.6667,138.95,53.096000000000046,76,96,4.18,JP,2023-04-22 13:08:56
484,pacocha,-17.5833,-71.3333,73.54400000000007,78,0,6.17,PE,2023-04-22 13:08:56
485,santa rosa de rio primero,-31.1523,-63.4019,78.54800000000003,32,99,1.34,AR,2023-04-22 13:08:56
486,valdoie,47.668,6.8445,56.84000000000002,92,100,0.77,FR,2023-04-22 13:08:57
487,gagliano del capo,39.8442,18.3695,60.81800000000008,76,0,5.53,IT,2023-04-22 13:08:57
488,dashtobod,40.1269,68.4944,63.733999999999995,23,11,2.28,UZ,2023-04-22 13:08:57
489,saint-pierre,-21.3393,55.4781,78.47600000000008,73,20,2.57,RE,2023-04-22 13:08:58
490,meadow lakes,61.6247,-149.6011,46.09400000000007,52,20,1.34,US,2023-04-22 13:08:44
491,san juan de uraba,8.7592,-76.5297,84.56000000000009,64,100,3.39,CO,2023-04-22 13:08:58
492,hilo,19.7297,-155.09,80.2760000000001,82,40,2.57,US,2023-04-22 13:07:38
493,umluj,25.0213,37.2685,78.38600000000008,63,13,2.91,SA,2023-04-22 13:08:59
494,iskushuban,10.2837,50.23,79.37600000000009,67,20,5.68,SO,2023-04-22 13:08:59
495,moree,-29.4667,149.85,56.48000000000005,66,0,3.43,AU,2023-04-22 13:08:59
496,san borja,-14.8167,-66.85,86.82800000000006,52,54,0.95,BO,2023-04-22 13:08:59
497,zyrya,40.3661,50.2917,59.09000000000002,78,13,3.08,AZ,2023-04-22 13:09:00
498,hammerfest,70.6634,23.6821,25.25,86,20,5.14,NO,2023-04-22 13:07:36
499,brooks,50.5834,-111.8851,41.03600000000007,50,17,3.96,CA,2023-04-22 13:06:49
500,sitka,57.0531,-135.33,48.092,57,100,7.72,US,2023-04-22 13:08:06
501,valle hermoso,25.6667,-97.8333,84.092,57,82,6.47,MX,2023-04-22 13:09:00
502,yongbyon,39.8133,125.8042,45.14000000000002,33,23,2.12,KP,2023-04-22 13:09:01
503,huai khot,15.2909,99.6166,85.04600000000005,51,6,2.68,TH,2023-04-22 13:09:01
504,sassandra,4.95,-6.0833,83.174,79,90,5.55,CI,2023-04-22 13:08:36
505,punta del este,-34.9667,-54.95,69.96200000000006,79,40,4.12,UY,2023-04-22 13:06:37
506,xinyuan,37.3,99.0,28.25600000000003,85,85,1.2,CN,2023-04-22 13:09:02
507,jerome,42.7241,-114.5186,47.228000000000065,49,40,7.2,US,2023-04-22 13:09:02
508,bouna,9.2667,-3.0,95.77400000000002,27,82,1.88,CI,2023-04-22 13:09:02
509,pacific grove,36.6177,-121.9166,71.65400000000005,82,40,4.92,US,2023-04-22 13:08:17
510,yuzhno-kurilsk,44.0306,145.8556,36.5,81,61,9.12,RU,2023-04-22 13:07:25
511,iskateley,67.6803,53.1512,32.81000000000008,98,100,7.23,RU,2023-04-22 13:07:41
512,kivioli,59.3531,26.9711,45.788000000000046,73,21,1.87,EE,2023-04-22 13:09:04
513,nadi,-17.8,177.4167,71.6,83,20,2.57,FJ,2023-04-22 13:09:04
514,grand falls-windsor,48.9332,-55.6649,36.5,93,100,1.34,CA,2023-04-22 13:07:45
515,tangalle,6.024,80.7911,77.52200000000005,86,56,1.9,LK,2023-04-22 13:09:05
516,lodeynoye pole,60.726,33.5531,41.108000000000004,93,14,1.71,RU,2023-04-22 13:09:05
517,ta'izz,13.5,44.0,73.20200000000008,57,93,3.73,YE,2023-04-22 13:09:05
518,oum hadjer,13.2954,19.6966,98.11400000000003,9,26,3.38,TD,2023-04-22 13:09:06
519,conception bay south,47.4999,-52.9981,38.444000000000074,97,100,8.75,CA,2023-04-22 13:08:13
520,ataq,14.5377,46.8319,74.71400000000003,53,94,5.8,YE,2023-04-22 13:09:06
521,kalmunai,7.4167,81.8167,79.95200000000008,81,97,1.29,LK,2023-04-22 13:09:06
522,swanage,50.6092,-1.9626,51.944000000000074,86,88,6.31,GB,2023-04-22 13:09:07
523,beloyarskiy,63.7119,66.6722,33.314000000000036,89,100,1.45,RU,2023-04-22 13:09:07
524,tchintabaraden,15.8969,5.7985,93.36200000000005,9,23,4.85,NE,2023-04-22 13:09:07
525,kruisfontein,-34.0033,24.7314,56.87600000000009,59,100,0.59,ZA,2023-04-22 13:07:56
526,gifford,27.6753,-80.4092,88.03399999999999,62,40,6.17,US,2023-04-22 13:09:08
527,cole harbour,44.6724,-63.4751,58.92800000000007,49,91,3.13,CA,2023-04-22 13:08:46
528,ekuvukeni,-28.4675,30.1551,64.4,25,86,1.95,ZA,2023-04-22 13:09:09
529,cupar,56.3188,-3.012,51.242,84,100,5.66,GB,2023-04-22 13:09:09
530,monrovia,6.3005,-10.7969,85.76600000000002,78,22,5.44,LR,2023-04-22 13:09:09
531,al matlin,37.2452,10.05,62.18600000000007,72,8,4.12,TN,2023-04-22 13:09:10
532,ciudad melchor muzquiz,27.8833,-101.5167,84.16400000000004,46,48,4.21,MX,2023-04-22 13:09:10
533,eyl,7.9803,49.8164,83.55200000000008,72,98,6.55,SO,2023-04-22 13:09:11
534,mareeba,-17.0,145.4333,72.44600000000005,85,99,0.92,AU,2023-04-22 13:09:11
535,kodinsk,58.6881,99.1844,15.8,96,5,0.7,RU,2023-04-22 13:08:23
536,portland,45.5234,-122.6762,61.05200000000008,91,100,1.54,US,2023-04-22 13:03:15
537,kosh-agach,50.0,88.6667,20.660000000000082,59,81,2.0,RU,2023-04-22 13:09:12
538,mumford,5.2618,-0.759,82.61600000000001,79,38,7.24,GH,2023-04-22 13:09:12
539,barah,13.7,30.3667,91.07600000000009,9,0,5.07,SD,2023-04-22 13:09:13
540,lampang,18.3333,99.5,82.85,14,34,1.09,TH,2023-04-22 13:09:13
541,forster,-32.1667,152.5167,58.37000000000006,100,48,2.08,AU,2023-04-22 13:07:32
542,catu,-12.3531,-38.3789,80.74400000000009,78,38,3.51,BR,2023-04-22 13:09:14
543,colonia,50.9333,6.95,59.95400000000005,82,20,5.14,DE,2023-04-22 13:07:14
544,kayangel,8.0823,134.7173,83.57000000000006,70,100,4.39,PW,2023-04-22 13:09:14
545,ulsteinvik,62.3432,5.8487,50.900000000000006,74,29,9.39,NO,2023-04-22 13:09:15
546,mount pleasant,32.7941,-79.8626,84.99199999999999,66,40,4.63,US,2023-04-22 13:09:15
547,buloh kasap,2.5536,102.764,76.94600000000005,93,100,0.49,MY,2023-04-22 13:09:15
548,zhangatas,43.5667,69.75,53.40200000000008,42,87,4.56,KZ,2023-04-22 13:09:16
549,dalandzadgad,43.5708,104.425,44.45600000000003,18,100,2.57,MN,2023-04-22 13:09:16
550,sandnessjoen,66.0217,12.6316,36.64400000000008,57,63,0.89,NO,2023-04-22 13:06:58
551,coahuayana de hidalgo,18.7,-103.6583,89.09600000000006,48,73,3.69,MX,2023-04-22 13:09:17
552,atsugi,35.4389,139.3597,55.23800000000004,61,99,3.1,JP,2023-04-22 13:09:17
553,zayed city,24.3768,54.589,82.00400000000005,61,0,3.09,AE,2023-04-22 13:09:17
554,fray luis beltran,-39.3167,-65.7667,69.566,29,0,3.73,AR,2023-04-22 13:09:18
555,kimbe,-5.5502,150.1429,75.308,92,78,1.74,PG,2023-04-22 13:09:18
556,carutapera,-1.195,-46.02,83.67800000000007,77,94,3.28,BR,2023-04-22 13:07:11
557,carazinho,-28.2839,-52.7864,73.31000000000009,43,73,3.05,BR,2023-04-22 13:09:19
558,ouezzane,34.7971,-5.5822,68.95400000000006,54,4,5.21,MA,2023-04-22 13:09:19
559,cill airne,52.05,-9.5167,46.18399999999999,93,100,1.28,IE,2023-04-22 13:07:47
560,mathba,22.2855,89.9629,79.30400000000006,56,55,3.38,BD,2023-04-22 13:09:19
561,carloforte,39.145,8.3058,61.79000000000002,68,74,6.48,IT,2023-04-22 13:09:20
562,haimen,23.1935,116.6142,69.29600000000005,90,99,5.98,CN,2023-04-22 13:09:20
563,susuman,62.7833,148.1667,5.864000000000033,98,82,1.84,RU,2023-04-22 13:08:50
564,villa gesell,-37.2639,-56.973,61.05200000000008,73,24,6.22,AR,2023-04-22 13:07:41
565,sao marcos,-28.9711,-51.0681,74.04800000000003,38,93,0.66,BR,2023-04-22 13:09:21
566,holualoa,19.6228,-155.9522,76.78399999999999,81,40,5.14,US,2023-04-22 13:08:00
567,road town,18.4167,-64.6167,84.29000000000002,70,40,5.66,VG,2023-04-22 13:05:32
568,namibe,-15.1961,12.1522,78.29600000000005,79,74,3.17,AO,2023-04-22 13:06:47
569,vieste,41.8825,16.175,58.91000000000008,73,10,3.38,IT,2023-04-22 13:09:22
570,jingmen,31.0336,112.2047,42.51200000000006,87,100,7.46,CN,2023-04-22 13:09:22
571,mawlamyinegyunn,16.3833,95.2667,83.55200000000008,73,45,4.05,MM,2023-04-22 13:09:22
572,yanam,16.7333,82.2167,78.98000000000005,88,87,0.6,IN,2023-04-22 13:09:23
573,witu,-2.3889,40.4382,77.16200000000006,92,100,3.01,KE,2023-04-22 13:09:24
574,anna regina,7.2644,-58.5077,82.38200000000002,73,100,3.67,GY,2023-04-22 13:09:24
575,abalak,58.1286,68.5944,44.168000000000085,94,100,2.95,RU,2023-04-22 13:08:43
576,nago,26.5881,127.9761,71.45600000000003,84,15,5.5,JP,2023-04-22 13:06:12
577,axim,4.8699,-2.2405,82.54400000000007,79,90,3.6,GH,2023-04-22 13:09:25
578,holmsund,63.706,20.3641,33.74600000000005,86,100,4.02,SE,2023-04-22 13:09:25
579,taoudenni,22.6783,-3.9836,92.084,7,72,4.7,ML,2023-04-22 13:08:45
580,languyan,5.2618,120.0807,78.53000000000004,83,43,1.73,PH,2023-04-22 13:09:25
581,balykshi,47.0667,51.8667,55.400000000000006,82,0,5.0,KZ,2023-04-22 13:09:26
582,kharp,66.8014,65.8081,27.968000000000085,99,100,1.35,RU,2023-04-22 13:07:36
583,villa avila camacho,20.3819,-97.8792,83.96600000000001,69,66,2.7,MX,2023-04-22 13:09:26
584,fortuna,40.5982,-124.1573,56.66000000000008,92,92,2.88,US,2023-04-22 13:05:58
585,ola,59.5833,151.2833,29.696000000000048,74,100,11.53,RU,2023-04-22 13:06:56
586,tashtyp,52.7939,89.8983,28.094000000000072,82,59,0.74,RU,2023-04-22 13:09:27
587,bubaque,11.2833,-15.8333,78.36800000000008,70,43,11.23,GW,2023-04-22 13:07:20
588,salinas,36.6777,-121.6555,74.984,65,0,2.06,US,2023-04-22 13:09:28
589,norfolk,42.1668,-71.2495,58.08200000000002,66,100,2.57,US,2023-04-22 13:06:46
590,minas de marcona,-15.2119,-75.1103,72.0680000000001,57,42,6.58,PE,2023-04-22 13:09:28
591,kokpekty,48.75,82.4,38.19199999999999,60,1,2.51,KZ,2023-04-22 13:09:29
592,mersrags,57.3354,23.1246,43.34000000000002,72,11,1.33,LV,2023-04-22 13:09:29
593,loango,-4.6719,11.8312,79.7,78,100,2.29,CG,2023-04-22 13:09:30
594,ploneour-lanvern,47.9,-4.2833,55.72400000000002,76,75,7.72,FR,2023-04-22 13:07:30
595,marsa alam,25.0757,34.8918,75.59600000000006,61,41,2.59,EG,2023-04-22 13:07:52
596,dadhar,29.4753,67.6514,84.68600000000006,9,0,1.06,PK,2023-04-22 13:09:31
597,launceston,-41.45,147.1667,53.150000000000006,92,26,4.12,AU,2023-04-22 13:09:31
598,sechura,-5.5569,-80.8222,84.7760000000001,63,86,4.94,PE,2023-04-22 13:09:31
